{
  "type": "FeatureCollection",
  "features": [
    {
      "type": "Feature",
      "geometry": {
        "type": "Point",
        "coordinates": [
          107.5606244,
          -6.8956811
        ]
      },
      "properties": {
        "id": 291546102,
        "name": "Cimindi",
        "operator": "Kereta Api Indonesia",
        "public_transport": "stop_position",
        "railway": "stop",
        "ref": "B13;C13",
        "train": "yes"
      }
    },
    {
      "type": "Feature",
      "geometry": {
        "type": "Point",
        "coordinates": [
          107.4969052,
          -6.8423863
        ]
      },
      "properties": {
        "id": 1227216840,
        "local_ref": "4",
        "name": "Padalarang",
        "network": "KAI",
        "operator": "Kereta Api Indonesia",
        "public_transport": "stop_position",
        "railway": "stop",
        "ref": "B10;C10",
        "train": "yes"
      }
    },
    {
      "type": "Feature",
      "geometry": {
        "type": "Point",
        "coordinates": [
          107.7983447,
          -6.9802356
        ]
      },
      "properties": {
        "id": 6872615131,
        "name": "Haurpugur",
        "public_transport": "stop_position",
        "railway": "stop",
        "ref": "B22;C22",
        "train": "yes"
      }
    },
    {
      "type": "Feature",
      "geometry": {
        "type": "Point",
        "coordinates": [
          107.625378,
          -6.9185947
        ]
      },
      "properties": {
        "id": 7835805289,
        "local_ref": "2",
        "name": "Cikudapateuh",
        "network": "KAI Commuter",
        "public_transport": "stop_position",
        "railway": "stop",
        "ref": "B17;C17",
        "train": "yes"
      }
    },
    {
      "type": "Feature",
      "geometry": {
        "type": "Point",
        "coordinates": [
          107.7553737,
          -6.9646056
        ]
      },
      "properties": {
        "id": 10693253653,
        "name": "Rancaekek",
        "public_transport": "stop_position",
        "railway": "stop",
        "ref": "B21;C21",
        "train": "yes"
      }
    },
    {
      "type": "Feature",
      "geometry": {
        "type": "Point",
        "coordinates": [
          107.5896798,
          -6.9139018
        ]
      },
      "properties": {
        "id": 10693460291,
        "name": "Ciroyom",
        "public_transport": "stop_position",
        "railway": "stop",
        "ref": "B15;C15",
        "train": "yes"
      }
    },
    {
      "type": "Feature",
      "geometry": {
        "type": "Point",
        "coordinates": [
          107.6013653,
          -6.9144562
        ]
      },
      "properties": {
        "id": 10694245344,
        "local_ref": "4",
        "name": "Bandung",
        "name:ja": "バンドン",
        "network": "KAI Commuter",
        "operator": "Kereta Api Indonesia",
        "public_transport": "stop_position",
        "railway": "stop",
        "ref": "B16;C16",
        "train": "yes"
      }
    },
    {
      "type": "Feature",
      "geometry": {
        "type": "Point",
        "coordinates": [
          107.7113976,
          -6.9486453
        ]
      },
      "properties": {
        "id": 10694286156,
        "name": "Cimekar",
        "public_transport": "stop_position",
        "railway": "stop",
        "ref": "B20;C20",
        "train": "yes"
      }
    },
    {
      "type": "Feature",
      "geometry": {
        "type": "Point",
        "coordinates": [
          107.5353528,
          -6.8849429
        ]
      },
      "properties": {
        "id": 11546259370,
        "name": "Cimahi",
        "network": "KAI",
        "operator": "Kereta Api Indonesia",
        "public_transport": "stop_position",
        "railway": "stop",
        "ref": "B12;C12",
        "train": "yes"
      }
    },
    {
      "type": "Feature",
      "geometry": {
        "type": "Point",
        "coordinates": [
          107.6456051,
          -6.9247723
        ]
      },
      "properties": {
        "id": 11549081621,
        "name": "Kiaracondong",
        "network": "KAI Commuter",
        "operator": "Kereta Api Indonesia",
        "public_transport": "stop_position",
        "railway": "stop",
        "ref": "B18;C18",
        "train": "yes"
      }
    },
    {
      "type": "Feature",
      "geometry": {
        "type": "Point",
        "coordinates": [
          107.6888097,
          -6.940438
        ]
      },
      "properties": {
        "id": 11549081663,
        "name": "Gedebage",
        "network": "KAI Commuter",
        "public_transport": "stop_position",
        "railway": "stop",
        "ref": "B19;C19",
        "train": "yes"
      }
    },
    {
      "type": "Feature",
      "geometry": {
        "type": "Point",
        "coordinates": [
          107.8321466,
          -6.980985
        ]
      },
      "properties": {
        "id": 11755899803,
        "name": "Cicalengka",
        "public_transport": "stop_position",
        "railway": "stop",
        "railway:ref": "CCL",
        "ref": "B23;C23",
        "train": "yes"
      }
    }
  ]
}