{
  "type": "FeatureCollection",
  "features": [
    {
      "type": "Feature",
      "geometry": {
        "type": "Point",
        "coordinates": [
          107.6044519,
          -6.9164303
        ]
      },
      "properties": {
        "id": 29354702,
        "bus": "yes",
        "name": "Pasar Baru",
        "public_transport": "stop_position"
      }
    },
    {
      "type": "Feature",
      "geometry": {
        "type": "Point",
        "coordinates": [
          107.6280578,
          -6.942597
        ]
      },
      "properties": {
        "id": 1980677053,
        "bus": "yes",
        "name": "ISBI Bandung",
        "public_transport": "stop_position"
      }
    },
    {
      "type": "Feature",
      "geometry": {
        "type": "Point",
        "coordinates": [
          107.6179265,
          -6.9194254
        ]
      },
      "properties": {
        "id": 10280072517,
        "bus": "yes",
        "name": "Jalan Panaitan",
        "public_transport": "stop_position",
        "ref": "Jl. Sunda",
        "type": "public_transport"
      }
    },
    {
      "type": "Feature",
      "geometry": {
        "type": "Point",
        "coordinates": [
          107.6106208,
          -6.9065902
        ]
      },
      "properties": {
        "id": 10653503634,
        "bus": "yes",
        "name": "Hotel The-One-O-One B",
        "network": "Trans Metro Pasundan",
        "public_transport": "stop_position",
        "shelter": "no"
      }
    },
    {
      "type": "Feature",
      "geometry": {
        "type": "Point",
        "coordinates": [
          107.6111029,
          -6.9170839
        ]
      },
      "properties": {
        "id": 10801865379,
        "bus": "yes",
        "name": "Museum Mandala Wangsit Siliwangi",
        "public_transport": "stop_position"
      }
    },
    {
      "type": "Feature",
      "geometry": {
        "type": "Point",
        "coordinates": [
          107.6235031,
          -6.9192144
        ]
      },
      "properties": {
        "id": 11735248683,
        "bus": "yes",
        "name": "Kantor Pos Kosambi",
        "public_transport": "stop_position"
      }
    },
    {
      "type": "Feature",
      "geometry": {
        "type": "Point",
        "coordinates": [
          107.6173371,
          -6.9136482
        ]
      },
      "properties": {
        "id": 12806120207,
        "bus": "yes",
        "name": "Balai Bahasa Jawa Barat",
        "public_transport": "stop_position"
      }
    },
    {
      "type": "Feature",
      "geometry": {
        "type": "Point",
        "coordinates": [
          107.6165113,
          -6.9122853
        ]
      },
      "properties": {
        "id": 12806120209,
        "bus": "yes",
        "name": "Taman Musik Jalan Sumbawa",
        "public_transport": "stop_position"
      }
    },
    {
      "type": "Feature",
      "geometry": {
        "type": "Point",
        "coordinates": [
          107.6180659,
          -6.9178998
        ]
      },
      "properties": {
        "id": 12806120211,
        "bus": "yes",
        "name": "Yogya Jalan Sunda",
        "operator": "Bank Syariah Indonesia",
        "public_transport": "stop_position"
      }
    },
    {
      "type": "Feature",
      "geometry": {
        "type": "Point",
        "coordinates": [
          107.610154,
          -6.915607
        ]
      },
      "properties": {
        "id": 12806120224,
        "bus": "yes",
        "name": "SD Negeri Merdeka",
        "public_transport": "stop_position"
      }
    },
    {
      "type": "Feature",
      "geometry": {
        "type": "Point",
        "coordinates": [
          107.6268193,
          -6.934212
        ]
      },
      "properties": {
        "id": 12806868635,
        "bus": "yes",
        "name": "DPPKB Kota Bandung",
        "public_transport": "stop_position"
      }
    },
    {
      "type": "Feature",
      "geometry": {
        "type": "Point",
        "coordinates": [
          107.6353065,
          -6.9475072
        ]
      },
      "properties": {
        "id": 12806868677,
        "bus": "yes",
        "name": "SPBU Simpang Buah Batu Soekarno Hatta",
        "public_transport": "stop_position"
      }
    },
    {
      "type": "Feature",
      "geometry": {
        "type": "Point",
        "coordinates": [
          107.6321653,
          -6.9468581
        ]
      },
      "properties": {
        "id": 12808948218,
        "bus": "yes",
        "name": "Seberang Jalan Guntursari Wetan",
        "public_transport": "stop_position"
      }
    },
    {
      "type": "Feature",
      "geometry": {
        "type": "Point",
        "coordinates": [
          107.6260901,
          -6.9308456
        ]
      },
      "properties": {
        "id": 12809462424,
        "bus": "yes",
        "name": "Jalan Kangkung",
        "public_transport": "stop_position"
      }
    },
    {
      "type": "Feature",
      "geometry": {
        "type": "Point",
        "coordinates": [
          107.6138205,
          -6.9124068
        ]
      },
      "properties": {
        "id": 12809521950,
        "bus": "yes",
        "name": "Taman Lalu Lintas Kota Bandung",
        "public_transport": "stop_position"
      }
    },
    {
      "type": "Feature",
      "geometry": {
        "type": "Point",
        "coordinates": [
          107.6139915,
          -6.9144408
        ]
      },
      "properties": {
        "id": 12887182816,
        "bus": "yes",
        "name": "SMP Negeri 2 Bandung",
        "public_transport": "stop_position"
      }
    },
    {
      "type": "Feature",
      "geometry": {
        "type": "Point",
        "coordinates": [
          107.6248423,
          -6.929086
        ]
      },
      "properties": {
        "id": 12981961714,
        "bus": "yes",
        "name": "Simpang Talaga Bodas - Terusan Galunggung",
        "public_transport": "stop_position"
      }
    },
    {
      "type": "Feature",
      "geometry": {
        "type": "Point",
        "coordinates": [
          107.6288279,
          -6.9401215
        ]
      },
      "properties": {
        "id": 12986852696,
        "bus": "yes",
        "name": "SMK Negeri 8 Bandung",
        "public_transport": "stop_position"
      }
    },
    {
      "type": "Feature",
      "geometry": {
        "type": "Point",
        "coordinates": [
          107.62446,
          -6.9204704
        ]
      },
      "properties": {
        "id": 12986852700,
        "bus": "yes",
        "name": "Simpang Samoja - Malabar",
        "public_transport": "stop_position"
      }
    },
    {
      "type": "Feature",
      "geometry": {
        "type": "Point",
        "coordinates": [
          107.621673,
          -6.9201723
        ]
      },
      "properties": {
        "id": 13083774450,
        "bus": "yes",
        "name": "Pasar Kosambi Jalan Baranang Siang",
        "public_transport": "stop_position"
      }
    },
    {
      "type": "Feature",
      "geometry": {
        "type": "Point",
        "coordinates": [
          107.6306376,
          -6.9452719
        ]
      },
      "properties": {
        "id": 13178943013,
        "bus": "yes",
        "name": "Seberang Jalan Kayuagung II",
        "public_transport": "stop_position"
      }
    },
    {
      "type": "Feature",
      "geometry": {
        "type": "Point",
        "coordinates": [
          107.6285,
          -6.9384846
        ]
      },
      "properties": {
        "id": 13178943015,
        "bus": "yes",
        "name": "Kantor PLN Jalan Karawitan",
        "public_transport": "stop_position"
      }
    },
    {
      "type": "Feature",
      "geometry": {
        "type": "Point",
        "coordinates": [
          107.6267546,
          -6.9375305
        ]
      },
      "properties": {
        "id": 13178943017,
        "bus": "yes",
        "name": "Jalan Guntur Madu",
        "public_transport": "stop_position"
      }
    },
    {
      "type": "Feature",
      "geometry": {
        "type": "Point",
        "coordinates": [
          107.6260213,
          -6.9357513
        ]
      },
      "properties": {
        "id": 13178943019,
        "bus": "yes",
        "name": "Simpang Asmarandana Maskumambang",
        "public_transport": "stop_position"
      }
    },
    {
      "type": "Feature",
      "geometry": {
        "type": "Point",
        "coordinates": [
          107.6266861,
          -6.9328994
        ]
      },
      "properties": {
        "id": 13178943024,
        "bus": "yes",
        "name": "Dinas Ketenagakerjaan Kota Bandung",
        "public_transport": "stop_position"
      }
    },
    {
      "type": "Feature",
      "geometry": {
        "type": "Point",
        "coordinates": [
          107.6233911,
          -6.9274059
        ]
      },
      "properties": {
        "id": 13178943027,
        "bus": "yes",
        "name": "Seberang SD Al-Azhar 36 Bandung",
        "public_transport": "stop_position"
      }
    },
    {
      "type": "Feature",
      "geometry": {
        "type": "Point",
        "coordinates": [
          107.6234717,
          -6.925801
        ]
      },
      "properties": {
        "id": 13178943029,
        "bus": "yes",
        "name": "Taman Pers Malabar 1",
        "public_transport": "stop_position"
      }
    },
    {
      "type": "Feature",
      "geometry": {
        "type": "Point",
        "coordinates": [
          107.6244141,
          -6.9234091
        ]
      },
      "properties": {
        "id": 13178943031,
        "bus": "yes",
        "name": "Simpang Malabar Gatot Subroto 1",
        "public_transport": "stop_position"
      }
    },
    {
      "type": "Feature",
      "geometry": {
        "type": "Point",
        "coordinates": [
          107.619832,
          -6.9211515
        ]
      },
      "properties": {
        "id": 13178943032,
        "bus": "yes",
        "name": "Katapang Kaler 1",
        "public_transport": "stop_position"
      }
    },
    {
      "type": "Feature",
      "geometry": {
        "type": "Point",
        "coordinates": [
          107.6176748,
          -6.9217511
        ]
      },
      "properties": {
        "id": 13178943034,
        "bus": "yes",
        "name": "Simpang Naripan Sunda",
        "public_transport": "stop_position"
      }
    },
    {
      "type": "Feature",
      "geometry": {
        "type": "Point",
        "coordinates": [
          107.6182441,
          -6.9165066
        ]
      },
      "properties": {
        "id": 13178943036,
        "bus": "yes",
        "name": "SPBU Jalan Sunda",
        "public_transport": "stop_position"
      }
    },
    {
      "type": "Feature",
      "geometry": {
        "type": "Point",
        "coordinates": [
          107.6170875,
          -6.9115498
        ]
      },
      "properties": {
        "id": 13178943038,
        "bus": "yes",
        "name": "Simpang Banda - Belitung",
        "public_transport": "stop_position"
      }
    },
    {
      "type": "Feature",
      "geometry": {
        "type": "Point",
        "coordinates": [
          107.6193124,
          -6.9117349
        ]
      },
      "properties": {
        "id": 13178943040,
        "bus": "yes",
        "name": "Simpang Bangka - Belitung",
        "public_transport": "stop_position"
      }
    },
    {
      "type": "Feature",
      "geometry": {
        "type": "Point",
        "coordinates": [
          107.6210202,
          -6.909803
        ]
      },
      "properties": {
        "id": 13178943042,
        "bus": "yes",
        "name": "Simpang Menado - Aceh 1",
        "public_transport": "stop_position"
      }
    },
    {
      "type": "Feature",
      "geometry": {
        "type": "Point",
        "coordinates": [
          107.6214307,
          -6.9084922
        ]
      },
      "properties": {
        "id": 13178943045,
        "bus": "yes",
        "name": "Polsek Bandung Wetan 1",
        "public_transport": "stop_position"
      }
    },
    {
      "type": "Feature",
      "geometry": {
        "type": "Point",
        "coordinates": [
          107.6228887,
          -6.9078266
        ]
      },
      "properties": {
        "id": 13178943047,
        "bus": "yes",
        "name": "Pasar Cihapit 1",
        "public_transport": "stop_position"
      }
    },
    {
      "type": "Feature",
      "geometry": {
        "type": "Point",
        "coordinates": [
          107.6243084,
          -6.9066854
        ]
      },
      "properties": {
        "id": 13178943049,
        "bus": "yes",
        "name": "Simpang Brantas Cihapit 1",
        "public_transport": "stop_position"
      }
    },
    {
      "type": "Feature",
      "geometry": {
        "type": "Point",
        "coordinates": [
          107.6238668,
          -6.9045296
        ]
      },
      "properties": {
        "id": 13178943051,
        "bus": "yes",
        "name": "Taman Cibeunying Selatan",
        "public_transport": "stop_position"
      }
    },
    {
      "type": "Feature",
      "geometry": {
        "type": "Point",
        "coordinates": [
          107.6213475,
          -6.9028981
        ]
      },
      "properties": {
        "id": 13178943053,
        "bus": "yes",
        "name": "Simpang Cilaki - Cimanuk",
        "public_transport": "stop_position"
      }
    },
    {
      "type": "Feature",
      "geometry": {
        "type": "Point",
        "coordinates": [
          107.620006,
          -6.9018681
        ]
      },
      "properties": {
        "id": 13178943055,
        "bus": "yes",
        "name": "Museum Pos Indonesia",
        "public_transport": "stop_position"
      }
    },
    {
      "type": "Feature",
      "geometry": {
        "type": "Point",
        "coordinates": [
          107.617339,
          -6.9013203
        ]
      },
      "properties": {
        "id": 13178943057,
        "bus": "yes",
        "name": "Gedung Sate",
        "public_transport": "stop_position"
      }
    },
    {
      "type": "Feature",
      "geometry": {
        "type": "Point",
        "coordinates": [
          107.6153066,
          -6.9020254
        ]
      },
      "properties": {
        "id": 13178943059,
        "bus": "yes",
        "name": "Taman Segitiga Trunojoyo 1",
        "public_transport": "stop_position"
      }
    },
    {
      "type": "Feature",
      "geometry": {
        "type": "Point",
        "coordinates": [
          107.6139964,
          -6.9026034
        ]
      },
      "properties": {
        "id": 13178943062,
        "bus": "yes",
        "name": "Simpang Sultan Tirtayasa - Trunojoyo 1",
        "public_transport": "stop_position"
      }
    },
    {
      "type": "Feature",
      "geometry": {
        "type": "Point",
        "coordinates": [
          107.612312,
          -6.9044245
        ]
      },
      "properties": {
        "id": 13178943064,
        "bus": "yes",
        "name": "Jalan Sultan Agung",
        "public_transport": "stop_position"
      }
    },
    {
      "type": "Feature",
      "geometry": {
        "type": "Point",
        "coordinates": [
          107.6119103,
          -6.908644
        ]
      },
      "properties": {
        "id": 13178943066,
        "bus": "yes",
        "name": "Taman Pertigaan Pujasera",
        "public_transport": "stop_position"
      }
    },
    {
      "type": "Feature",
      "geometry": {
        "type": "Point",
        "coordinates": [
          107.6116145,
          -6.9145961
        ]
      },
      "properties": {
        "id": 13178943069,
        "bus": "yes",
        "name": "Polrestabes Bandung 1",
        "public_transport": "stop_position"
      }
    },
    {
      "type": "Feature",
      "geometry": {
        "type": "Point",
        "coordinates": [
          107.6112441,
          -6.9184763
        ]
      },
      "properties": {
        "id": 13178943071,
        "bus": "yes",
        "name": "Simpang Kejaksaan - Markoni",
        "public_transport": "stop_position"
      }
    },
    {
      "type": "Feature",
      "geometry": {
        "type": "Point",
        "coordinates": [
          107.6094304,
          -6.9178369
        ]
      },
      "properties": {
        "id": 13178943073,
        "bus": "yes",
        "name": "Jalan Braga Gang Cikapundung",
        "public_transport": "stop_position"
      }
    },
    {
      "type": "Feature",
      "geometry": {
        "type": "Point",
        "coordinates": [
          107.6080047,
          -6.9161294
        ]
      },
      "properties": {
        "id": 13178943075,
        "bus": "yes",
        "name": "Suniaraja Braga",
        "public_transport": "stop_position"
      }
    },
    {
      "type": "Feature",
      "geometry": {
        "type": "Point",
        "coordinates": [
          107.6057907,
          -6.9155809
        ]
      },
      "properties": {
        "id": 13178943077,
        "bus": "yes",
        "name": "Banceuy Suniaraja",
        "public_transport": "stop_position"
      }
    },
    {
      "type": "Feature",
      "geometry": {
        "type": "Point",
        "coordinates": [
          107.6408496,
          -6.9458361
        ]
      },
      "properties": {
        "id": 12806868670,
        "bus": "yes",
        "name": "Simpang Soetta Kiaracondong",
        "public_transport": "stop_position"
      }
    },
    {
      "type": "Feature",
      "geometry": {
        "type": "Point",
        "coordinates": [
          107.6048398,
          -6.9184569
        ]
      },
      "properties": {
        "id": 13178943079,
        "bus": "yes",
        "name": "Pasar Baru ABC",
        "public_transport": "stop_position"
      }
    }
  ]
}