{
  "type": "FeatureCollection",
  "generator": "overpass-turbo",
  "copyright": "The data included in this document is from www.openstreetmap.org. The data is made available under ODbL.",
  "timestamp": "2025-03-04T22:30:59Z",
  "features": [
    {
      "type": "Feature",
      "properties": {
        "@id": "node/29354702",
        "bus": "yes",
        "highway": "bus_stop",
        "name": "Pasar Baru",
        "public_transport": "stop_position",
        "ref": "Pasar Baru"
      },
      "geometry": {
        "type": "Point",
        "coordinates": [
          107.6044519,
          -6.9164303
        ]
      },
      "id": "node/29354702"
    },
    {
      "type": "Feature",
      "properties": {
        "@id": "node/3277886365",
        "bus": "yes",
        "name": "Terminal Leuwipanjang",
        "public_transport": "stop_position"
      },
      "geometry": {
        "type": "Point",
        "coordinates": [
          107.5932469,
          -6.9458124
        ]
      },
      "id": "node/3277886365"
    },
    {
      "type": "Feature",
      "properties": {
        "@id": "node/10653503634",
        "bus": "yes",
        "name": "The-One-O-One B",
        "network": "Trans Metro Pasundan",
        "public_transport": "stop_position",
        "shelter": "no"
      },
      "geometry": {
        "type": "Point",
        "coordinates": [
          107.6106299,
          -6.9065922
        ]
      },
      "id": "node/10653503634"
    },
    {
      "type": "Feature",
      "properties": {
        "@id": "node/10778322181",
        "bus": "yes",
        "name": "Kartikasari B",
        "public_transport": "stop_position"
      },
      "geometry": {
        "type": "Point",
        "coordinates": [
          107.6128497,
          -6.897514
        ]
      },
      "id": "node/10778322181"
    },
    {
      "type": "Feature",
      "properties": {
        "@id": "node/10778322182",
        "bus": "yes",
        "name": "Taman Radio B",
        "public_transport": "stop_position"
      },
      "geometry": {
        "type": "Point",
        "coordinates": [
          107.6116031,
          -6.902518
        ]
      },
      "id": "node/10778322182"
    },
    {
      "type": "Feature",
      "properties": {
        "@id": "node/10778322188",
        "bus": "yes",
        "name": "Dalem Kaum",
        "public_transport": "stop_position"
      },
      "geometry": {
        "type": "Point",
        "coordinates": [
          107.6040142,
          -6.9219758
        ]
      },
      "id": "node/10778322188"
    },
    {
      "type": "Feature",
      "properties": {
        "@id": "node/10815723012",
        "bus": "yes",
        "highway": "bus_stop",
        "name": "Simpang Mohamad Toha",
        "public_transport": "stop_position",
        "shelter": "yes",
        "source": "POI_WRI_Survey_2023",
        "wheelchair": "no"
      },
      "geometry": {
        "type": "Point",
        "coordinates": [
          107.6055097,
          -6.9375586
        ]
      },
      "id": "node/10815723012"
    },
    {
      "type": "Feature",
      "properties": {
        "@id": "node/11104718106",
        "bus": "yes",
        "name": "Rumah Sakit Santo Borromeus B",
        "public_transport": "stop_position"
      },
      "geometry": {
        "type": "Point",
        "coordinates": [
          107.6134343,
          -6.8948051
        ]
      },
      "id": "node/11104718106"
    },
    {
      "type": "Feature",
      "properties": {
        "@id": "node/11707030824",
        "bus": "yes",
        "name": "UNPAD Dipatiukur (4D)",
        "public_transport": "stop_position"
      },
      "geometry": {
        "type": "Point",
        "coordinates": [
          107.6177764,
          -6.8923055
        ]
      },
      "id": "node/11707030824"
    },
    {
      "type": "Feature",
      "properties": {
        "@id": "node/11735248675",
        "bus": "yes",
        "name": "Bank Indonesia",
        "public_transport": "stop_position"
      },
      "geometry": {
        "type": "Point",
        "coordinates": [
          107.608993,
          -6.9145426
        ]
      },
      "id": "node/11735248675"
    },
    {
      "type": "Feature",
      "properties": {
        "@id": "node/11739021633",
        "bus": "yes",
        "name": "Bandung Indah Plaza",
        "public_transport": "stop_position"
      },
      "geometry": {
        "type": "Point",
        "coordinates": [
          107.6106494,
          -6.9088917
        ]
      },
      "id": "node/11739021633"
    },
    {
      "type": "Feature",
      "properties": {
        "@id": "node/11739021637",
        "alt_name": "Santa Angela",
        "bus": "yes",
        "name": "Merdeka",
        "public_transport": "stop_position"
      },
      "geometry": {
        "type": "Point",
        "coordinates": [
          107.6104548,
          -6.9125343
        ]
      },
      "id": "node/11739021637"
    },
    {
      "type": "Feature",
      "properties": {
        "@id": "node/11739021642",
        "bus": "yes",
        "name": "Jalan Ibu Inggit Garnasih",
        "public_transport": "stop_position"
      },
      "geometry": {
        "type": "Point",
        "coordinates": [
          107.6039218,
          -6.9314959
        ]
      },
      "id": "node/11739021642"
    },
    {
      "type": "Feature",
      "properties": {
        "@id": "node/11739021647",
        "bus": "yes",
        "name": "Pasar Tegalega",
        "public_transport": "stop_position"
      },
      "geometry": {
        "type": "Point",
        "coordinates": [
          107.6062604,
          -6.9368241
        ]
      },
      "id": "node/11739021647"
    },
    {
      "type": "Feature",
      "properties": {
        "@id": "node/11739021653",
        "bus": "yes",
        "name": "Rumah Sakit Immanuel B",
        "public_transport": "stop_position"
      },
      "geometry": {
        "type": "Point",
        "coordinates": [
          107.5955421,
          -6.9372977
        ]
      },
      "id": "node/11739021653"
    }
  ]
}
