{
  "type": "FeatureCollection",
  "features": [
    {
      "type": "Feature",
      "geometry": {
        "type": "Point",
        "coordinates": [
          107.6179657,
          -6.8992842
        ]
      },
      "properties": {
        "id": 1660289593,
        "bus": "yes",
        "name": "Gasibu",
        "public_transport": "stop_position"
      }
    },
    {
      "type": "Feature",
      "geometry": {
        "type": "Point",
        "coordinates": [
          107.6135004,
          -6.898852
        ]
      },
      "properties": {
        "id": 5832170587,
        "bus": "yes",
        "name": "Cikapayang Dago 2",
        "public_transport": "stop_position"
      }
    },
    {
      "type": "Feature",
      "geometry": {
        "type": "Point",
        "coordinates": [
          107.6370818,
          -6.8984481
        ]
      },
      "properties": {
        "id": 5832220656,
        "bus": "yes",
        "name": "Sukasenang Raya 2",
        "public_transport": "stop_position"
      }
    },
    {
      "type": "Feature",
      "geometry": {
        "type": "Point",
        "coordinates": [
          107.6439328,
          -6.9000256
        ]
      },
      "properties": {
        "id": 5832221887,
        "bus": "yes",
        "name": "Sukapada",
        "public_transport": "stop_position",
        "ref": "Cikutra"
      }
    },
    {
      "type": "Feature",
      "geometry": {
        "type": "Point",
        "coordinates": [
          107.6567969,
          -6.9021302
        ]
      },
      "properties": {
        "id": 5832221935,
        "bus": "yes",
        "name": "Seberang Terminal Cicaheum",
        "public_transport": "stop_position"
      }
    },
    {
      "type": "Feature",
      "geometry": {
        "type": "Point",
        "coordinates": [
          107.6362093,
          -6.8982483
        ]
      },
      "properties": {
        "id": 12013144934,
        "bus": "yes",
        "name": "ITENAS",
        "public_transport": "stop_position"
      }
    },
    {
      "type": "Feature",
      "geometry": {
        "type": "Point",
        "coordinates": [
          107.5849478,
          -6.8925604
        ]
      },
      "properties": {
        "id": 12013144935,
        "bus": "yes",
        "name": "Mall d'Botanica",
        "public_transport": "stop_position"
      }
    },
    {
      "type": "Feature",
      "geometry": {
        "type": "Point",
        "coordinates": [
          107.5814944,
          -6.8821984
        ]
      },
      "properties": {
        "id": 12628813990,
        "bus": "yes",
        "name": "Setrasari",
        "public_transport": "stop_position"
      }
    },
    {
      "type": "Feature",
      "geometry": {
        "type": "Point",
        "coordinates": [
          107.5883918,
          -6.8948914
        ]
      },
      "properties": {
        "id": 12628813992,
        "bus": "yes",
        "name": "Griya Pasteur 2",
        "public_transport": "stop_position"
      }
    },
    {
      "type": "Feature",
      "geometry": {
        "type": "Point",
        "coordinates": [
          107.610121,
          -6.8982089
        ]
      },
      "properties": {
        "id": 12628813995,
        "bus": "yes",
        "name": "Tamansari Cikapayang",
        "public_transport": "stop_position"
      }
    },
    {
      "type": "Feature",
      "geometry": {
        "type": "Point",
        "coordinates": [
          107.6225131,
          -6.8992349
        ]
      },
      "properties": {
        "id": 12628813998,
        "bus": "yes",
        "name": "Distan Jabar",
        "public_transport": "stop_position"
      }
    },
    {
      "type": "Feature",
      "geometry": {
        "type": "Point",
        "coordinates": [
          107.6285873,
          -6.8998503
        ]
      },
      "properties": {
        "id": 12628814000,
        "bus": "yes",
        "name": "Dapen Telkom",
        "public_transport": "stop_position"
      }
    },
    {
      "type": "Feature",
      "geometry": {
        "type": "Point",
        "coordinates": [
          107.6321413,
          -6.8983546
        ]
      },
      "properties": {
        "id": 12628835702,
        "bus": "yes",
        "name": "Jalaprang",
        "public_transport": "stop_position"
      }
    },
    {
      "type": "Feature",
      "geometry": {
        "type": "Point",
        "coordinates": [
          107.6404383,
          -6.8992417
        ]
      },
      "properties": {
        "id": 12628835705,
        "bus": "yes",
        "name": "Sekolah Pribadi",
        "public_transport": "stop_position"
      }
    },
    {
      "type": "Feature",
      "geometry": {
        "type": "Point",
        "coordinates": [
          107.6525276,
          -6.9018908
        ]
      },
      "properties": {
        "id": 12628835709,
        "bus": "yes",
        "name": "Surapati Core",
        "public_transport": "stop_position"
      }
    },
    {
      "type": "Feature",
      "geometry": {
        "type": "Point",
        "coordinates": [
          107.5784297,
          -6.881656
        ]
      },
      "properties": {
        "id": 12628813986,
        "bus": "yes",
        "name": "Sarijadi",
        "public_transport": "stop_position"
      }
    },
    {
      "type": "Feature",
      "geometry": {
        "type": "Point",
        "coordinates": [
          107.6565637,
          -6.902329
        ]
      },
      "properties": {
        "id": 6460801785,
        "bus": "yes",
        "name": "Terminal Cicaheum",
        "network": "Trans Metro Bandung",
        "operator": "Dinas Perhubungan Kota Bandung",
        "public_transport": "stop_position"
      }
    }
  ]
}