{
  "type": "FeatureCollection",
  "generator": "overpass-turbo",
  "copyright": "The data included in this document is from www.openstreetmap.org. The data is made available under ODbL.",
  "timestamp": "2025-03-04T22:31:55Z",
  "features": [
    {
      "type": "Feature",
      "properties": {
        "@id": "node/1107694939",
        "bus": "yes",
        "name": "Taman Pramuka",
        "public_transport": "stop_position"
      },
      "geometry": {
        "type": "Point",
        "coordinates": [
          107.6274766,
          -6.9106475
        ]
      },
      "id": "node/1107694939"
    },
    {
      "type": "Feature",
      "properties": {
        "@id": "node/1666155324",
        "bus": "yes",
        "name": "Lapangan Gasibu A",
        "public_transport": "stop_position"
      },
      "geometry": {
        "type": "Point",
        "coordinates": [
          107.6199195,
          -6.9011743
        ]
      },
      "id": "node/1666155324"
    },
    {
      "type": "Feature",
      "properties": {
        "@id": "node/1966499313",
        "bus": "yes",
        "highway": "bus_stop",
        "name": "IPDN A",
        "public_transport": "stop_position",
        "ref": "IPDN A"
      },
      "geometry": {
        "type": "Point",
        "coordinates": [
          107.7652049,
          -6.9356267
        ]
      },
      "id": "node/1966499313"
    },
    {
      "type": "Feature",
      "properties": {
        "@id": "node/3375793673",
        "bus": "yes",
        "name": "UNPAD Dipatiukur",
        "public_transport": "stop_position"
      },
      "geometry": {
        "type": "Point",
        "coordinates": [
          107.6180361,
          -6.8934568
        ]
      },
      "id": "node/3375793673"
    },
    {
      "type": "Feature",
      "properties": {
        "@id": "node/3375793687",
        "bus": "yes",
        "highway": "bus_stop",
        "name": "Hotel Grand Tebu",
        "public_transport": "stop_position"
      },
      "geometry": {
        "type": "Point",
        "coordinates": [
          107.6288644,
          -6.9130163
        ]
      },
      "id": "node/3375793687"
    },
    {
      "type": "Feature",
      "properties": {
        "@id": "node/5487616737",
        "bus": "yes",
        "name": "Simpang By Pass Soekarno Hatta A",
        "public_transport": "stop_position"
      },
      "geometry": {
        "type": "Point",
        "coordinates": [
          107.6090862,
          -6.9473728
        ]
      },
      "id": "node/5487616737"
    },
    {
      "type": "Feature",
      "properties": {
        "@id": "node/7702036194",
        "bus": "yes",
        "name": "Hotel Horison A",
        "public_transport": "stop_position"
      },
      "geometry": {
        "type": "Point",
        "coordinates": [
          107.6252887,
          -6.9343354
        ]
      },
      "id": "node/7702036194"
    },
    {
      "type": "Feature",
      "properties": {
        "@id": "node/11707030826",
        "bus": "yes",
        "name": "Panatayudha A",
        "public_transport": "stop_position"
      },
      "geometry": {
        "type": "Point",
        "coordinates": [
          107.6161542,
          -6.8979225
        ]
      },
      "id": "node/11707030826"
    },
    {
      "type": "Feature",
      "properties": {
        "@id": "node/11707030829",
        "bus": "yes",
        "name": "PUSDAI A",
        "public_transport": "stop_position"
      },
      "geometry": {
        "type": "Point",
        "coordinates": [
          107.6241876,
          -6.9010661
        ]
      },
      "id": "node/11707030829"
    },
    {
      "type": "Feature",
      "properties": {
        "@id": "node/11707030832",
        "bus": "yes",
        "name": "SMPN 14 Bandung (Lapangan Supratman A)",
        "public_transport": "stop_position"
      },
      "geometry": {
        "type": "Point",
        "coordinates": [
          107.6301163,
          -6.9080655
        ]
      },
      "id": "node/11707030832"
    },
    {
      "type": "Feature",
      "properties": {
        "@id": "node/11707030860",
        "bus": "yes",
        "highway": "bus_stop",
        "name": "Bandung Creative Hub A",
        "public_transport": "stop_position"
      },
      "geometry": {
        "type": "Point",
        "coordinates": [
          107.6313457,
          -6.9183624
        ]
      },
      "id": "node/11707030860"
    },
    {
      "type": "Feature",
      "properties": {
        "@id": "node/11707031623",
        "bus": "yes",
        "name": "Muhammad Toha 1 (PT INTI A)",
        "public_transport": "stop_position"
      },
      "geometry": {
        "type": "Point",
        "coordinates": [
          107.6062885,
          -6.939027
        ]
      },
      "id": "node/11707031623"
    },
    {
      "type": "Feature",
      "properties": {
        "@id": "node/11711185184",
        "bus": "yes",
        "name": "SPBU Moh. Toha",
        "public_transport": "stop_position"
      },
      "geometry": {
        "type": "Point",
        "coordinates": [
          107.6115168,
          -6.954618
        ]
      },
      "id": "node/11711185184"
    },
    {
      "type": "Feature",
      "properties": {
        "@id": "node/11711185187",
        "bus": "yes",
        "name": "Cileunyi A",
        "public_transport": "stop_position"
      },
      "geometry": {
        "type": "Point",
        "coordinates": [
          107.7541846,
          -6.9410603
        ]
      },
      "id": "node/11711185187"
    },
    {
      "type": "Feature",
      "properties": {
        "@id": "node/10697346845",
        "bus": "yes",
        "name": "UNPAD Jatinangor",
        "public_transport": "stop_position"
      },
      "geometry": {
        "type": "Point",
        "coordinates": [
          107.7732376,
          -6.932299
        ]
      },
      "id": "node/10697346845"
    }
  ]
}
