{
  "type": "FeatureCollection",
  "features": [
    {
      "type": "Feature",
      "geometry": {
        "type": "Point",
        "coordinates": [
          107.7547779,
          -6.9419585
        ]
      },
      "properties": {
        "id": 2508368207,
        "name": "Terminal Bayangan Cileunyi",
        "shelter": "yes",
        "pole": null,
        "routes": []
      }
    },
    {
      "type": "Feature",
      "geometry": {
        "type": "Point",
        "coordinates": [
          107.6212499,
          -6.8670976
        ]
      },
      "properties": {
        "id": 3373712058,
        "name": "Terminal Dago",
        "shelter": "yes",
        "pole": null,
        "routes": [
          4283719,
          4284600,
          4292372,
          4423238,
          4631469,
          4634057,
          4643109,
          4648025
        ]
      }
    },
    {
      "type": "Feature",
      "geometry": {
        "type": "Point",
        "coordinates": [
          107.6129073,
          -6.9304315
        ]
      },
      "properties": {
        "id": 3374033508,
        "name": "SDN 020 Lengkong Besar",
        "shelter": "yes",
        "pole": "no",
        "routes": [
          4635842,
          4636013,
          4643109,
          4652460,
          4652619,
          16650514
        ]
      }
    },
    {
      "type": "Feature",
      "geometry": {
        "type": "Point",
        "coordinates": [
          107.6189415,
          -6.8744812
        ]
      },
      "properties": {
        "id": 3375211647,
        "name": "Dago Pojok",
        "shelter": "yes",
        "pole": "no",
        "routes": [
          4283719,
          4292372,
          4634057
        ]
      }
    },
    {
      "type": "Feature",
      "geometry": {
        "type": "Point",
        "coordinates": [
          107.618398,
          -6.9110001
        ]
      },
      "properties": {
        "id": 3375794697,
        "name": "Seberang Stadion Siliwangi",
        "shelter": "yes",
        "pole": "no",
        "routes": [
          4425938,
          4636155
        ]
      }
    },
    {
      "type": "Feature",
      "geometry": {
        "type": "Point",
        "coordinates": [
          107.6304694,
          -6.906013
        ]
      },
      "properties": {
        "id": 3376171455,
        "name": "Muararajeun Baru",
        "shelter": "yes",
        "pole": "no",
        "routes": [
          3415464,
          4425938,
          4636155,
          4637081
        ]
      }
    },
    {
      "type": "Feature",
      "geometry": {
        "type": "Point",
        "coordinates": [
          107.6356478,
          -6.8928501
        ]
      },
      "properties": {
        "id": 3376171461,
        "name": "Taman Makam Pahlawan Cikutra",
        "shelter": "yes",
        "pole": "no",
        "routes": [
          4636155
        ]
      }
    },
    {
      "type": "Feature",
      "geometry": {
        "type": "Point",
        "coordinates": [
          107.5946739,
          -6.8600465
        ]
      },
      "properties": {
        "id": 3376673107,
        "name": "Museum Pendidikan Nasional UPI",
        "shelter": "yes",
        "pole": "no",
        "routes": [
          4291047,
          4308299,
          4308300,
          4432470,
          17553836,
          17771220
        ]
      }
    },
    {
      "type": "Feature",
      "geometry": {
        "type": "Point",
        "coordinates": [
          107.608725,
          -6.8946166
        ]
      },
      "properties": {
        "id": 3376871367,
        "name": "Gelap Nyawang",
        "shelter": "yes",
        "pole": "no",
        "routes": [
          4294473,
          4637081,
          16644061
        ]
      }
    },
    {
      "type": "Feature",
      "geometry": {
        "type": "Point",
        "coordinates": [
          107.6283137,
          -6.9039639
        ]
      },
      "properties": {
        "id": 3377028650,
        "name": "Muararajeun",
        "shelter": "yes",
        "pole": "no",
        "routes": [
          4308485,
          4425938,
          4637081
        ]
      }
    },
    {
      "type": "Feature",
      "geometry": {
        "type": "Point",
        "coordinates": [
          107.5881929,
          -6.9069438
        ]
      },
      "properties": {
        "id": 3377322398,
        "name": "Husein Pajajaran",
        "shelter": "yes",
        "pole": "no",
        "routes": [
          4291189,
          4294473,
          4425899,
          4639769,
          4639770,
          16644124,
          16650512,
          17553837,
          18782467,
          18782469
        ]
      }
    },
    {
      "type": "Feature",
      "geometry": {
        "type": "Point",
        "coordinates": [
          107.6268117,
          -6.9173661
        ]
      },
      "properties": {
        "id": 3378630367,
        "name": "Jaya Plaza",
        "shelter": "yes",
        "pole": "no",
        "routes": [
          16644061,
          17329177,
          17350725,
          17771219
        ]
      }
    },
    {
      "type": "Feature",
      "geometry": {
        "type": "Point",
        "coordinates": [
          107.6249697,
          -6.8912725
        ]
      },
      "properties": {
        "id": 3380023434,
        "name": "Terminal Sadang Serang",
        "shelter": "yes",
        "pole": "no",
        "routes": [
          4294473,
          4425938,
          4642211,
          4646137
        ]
      }
    },
    {
      "type": "Feature",
      "geometry": {
        "type": "Point",
        "coordinates": [
          107.6955416,
          -6.913719
        ]
      },
      "properties": {
        "id": 3380407822,
        "name": "SDN Andir Kidul",
        "shelter": "yes",
        "pole": "no",
        "routes": [
          4422550,
          4644899,
          17771223,
          19452156
        ]
      }
    },
    {
      "type": "Feature",
      "geometry": {
        "type": "Point",
        "coordinates": [
          107.6749963,
          -6.9046706
        ]
      },
      "properties": {
        "id": 3380407829,
        "name": "Lapas Sukamiskin",
        "shelter": "yes",
        "pole": "no",
        "routes": [
          4422442,
          4422550,
          4644899,
          17771223
        ]
      }
    },
    {
      "type": "Feature",
      "geometry": {
        "type": "Point",
        "coordinates": [
          107.610915,
          -6.8931418
        ]
      },
      "properties": {
        "id": 3380452739,
        "name": "ITB Ganesha A",
        "shelter": "yes",
        "pole": "no",
        "routes": [
          4422442,
          4646137,
          14364569
        ]
      }
    },
    {
      "type": "Feature",
      "geometry": {
        "type": "Point",
        "coordinates": [
          107.6518404,
          -6.9554886
        ]
      },
      "properties": {
        "id": 3383661734,
        "name": "Borma Margacinta",
        "shelter": "yes",
        "pole": "no",
        "routes": [
          4648328,
          5736509,
          16646697
        ]
      }
    },
    {
      "type": "Feature",
      "geometry": {
        "type": "Point",
        "coordinates": [
          107.6615272,
          -6.9597306
        ]
      },
      "properties": {
        "id": 3383661735,
        "name": "Taman Lansia Margahayu Raya",
        "shelter": "yes",
        "pole": null,
        "routes": [
          4308485,
          4425956,
          5736507
        ]
      }
    },
    {
      "type": "Feature",
      "geometry": {
        "type": "Point",
        "coordinates": [
          107.5747486,
          -6.8720507
        ]
      },
      "properties": {
        "id": 3470123914,
        "name": "Polban",
        "shelter": "yes",
        "pole": "no",
        "routes": [
          4818361,
          4818363,
          4818405,
          19526847
        ]
      }
    },
    {
      "type": "Feature",
      "geometry": {
        "type": "Point",
        "coordinates": [
          107.6635447,
          -6.9389469
        ]
      },
      "properties": {
        "id": 4143046689,
        "name": "Kawaluyaan",
        "shelter": "yes",
        "pole": "no",
        "routes": [
          4284600,
          4642502,
          5517528,
          16634809,
          16650576,
          17771073,
          17771075,
          18768804
        ]
      }
    },
    {
      "type": "Feature",
      "geometry": {
        "type": "Point",
        "coordinates": [
          107.6692718,
          -6.9388666
        ]
      },
      "properties": {
        "id": 5532592359,
        "name": "RS Al Islam",
        "shelter": "yes",
        "pole": "no",
        "routes": [
          4433069,
          4634057,
          4642502,
          16648201,
          17565369,
          17772429,
          18768805
        ]
      }
    },
    {
      "type": "Feature",
      "geometry": {
        "type": "Point",
        "coordinates": [
          107.6023677,
          -6.8829191
        ]
      },
      "properties": {
        "id": 6165399050,
        "name": "Setiabudi Hegarmanah",
        "shelter": "yes",
        "pole": "no",
        "routes": [
          4636013,
          4637081,
          4637686,
          4802256,
          4802258,
          17553837,
          17556157
        ]
      }
    },
    {
      "type": "Feature",
      "geometry": {
        "type": "Point",
        "coordinates": [
          107.6421592,
          -6.9429006
        ]
      },
      "properties": {
        "id": 6801061211,
        "name": "SPBU Kebon Kangkung",
        "shelter": "yes",
        "pole": "no",
        "routes": [
          4284600,
          4308485,
          4308486,
          4642502,
          16650576
        ]
      }
    },
    {
      "type": "Feature",
      "geometry": {
        "type": "Point",
        "coordinates": [
          107.61695,
          -6.9072421
        ]
      },
      "properties": {
        "id": 9735217308,
        "name": "Banda Saparua",
        "shelter": "yes",
        "pole": "no",
        "routes": [
          4308300,
          4634057
        ]
      }
    },
    {
      "type": "Feature",
      "geometry": {
        "type": "Point",
        "coordinates": [
          107.6161299,
          -6.8979463
        ]
      },
      "properties": {
        "id": 9739234181,
        "name": "Panatayudha B",
        "shelter": "yes",
        "pole": "no",
        "routes": [
          4291189,
          4422550,
          4634057
        ]
      }
    },
    {
      "type": "Feature",
      "geometry": {
        "type": "Point",
        "coordinates": [
          107.6115122,
          -6.8851544
        ]
      },
      "properties": {
        "id": 9740431469,
        "name": "Babakan Siliwangi",
        "shelter": "yes",
        "pole": "no",
        "routes": [
          4291047,
          4291189,
          4294474
        ]
      }
    },
    {
      "type": "Feature",
      "geometry": {
        "type": "Point",
        "coordinates": [
          107.6092292,
          -6.8877112
        ]
      },
      "properties": {
        "id": 9740431471,
        "name": "Sabuga ITB",
        "shelter": "yes",
        "pole": "no",
        "routes": [
          4291047,
          16646484
        ]
      }
    },
    {
      "type": "Feature",
      "geometry": {
        "type": "Point",
        "coordinates": [
          107.6081075,
          -6.8898031
        ]
      },
      "properties": {
        "id": 9740431472,
        "name": "Tamansari ITB",
        "shelter": "yes",
        "pole": "no",
        "routes": [
          4294473,
          4637081
        ]
      }
    },
    {
      "type": "Feature",
      "geometry": {
        "type": "Point",
        "coordinates": [
          107.6083233,
          -6.8933358
        ]
      },
      "properties": {
        "id": 9740431473,
        "name": "Tamansari (Bonbin)",
        "shelter": "yes",
        "pole": "no",
        "routes": [
          4291047,
          16646484
        ]
      }
    },
    {
      "type": "Feature",
      "geometry": {
        "type": "Point",
        "coordinates": [
          107.6041117,
          -6.8870174
        ]
      },
      "properties": {
        "id": 9755343723,
        "name": "SDN 065 Cihampelas",
        "shelter": "yes",
        "pole": "no",
        "routes": [
          4291047,
          4291189,
          4294474,
          4430737,
          4636013,
          4802257,
          17553837,
          17556157
        ]
      }
    },
    {
      "type": "Feature",
      "geometry": {
        "type": "Point",
        "coordinates": [
          107.6225183,
          -6.8991317
        ]
      },
      "properties": {
        "id": 9759075877,
        "name": "Distan Jabar",
        "shelter": "yes",
        "pole": "no",
        "routes": [
          4637686,
          4642924,
          4648025,
          17564831
        ]
      }
    },
    {
      "type": "Feature",
      "geometry": {
        "type": "Point",
        "coordinates": [
          107.5386348,
          -6.9025637
        ]
      },
      "properties": {
        "id": 9803550068,
        "name": "SMK Negeri 1 Cimahi",
        "shelter": "yes",
        "pole": "no",
        "routes": [
          4820221,
          5737863
        ]
      }
    },
    {
      "type": "Feature",
      "geometry": {
        "type": "Point",
        "coordinates": [
          107.6296905,
          -6.9072435
        ]
      },
      "properties": {
        "id": 9807948645,
        "name": "SDN 062 Ciujung Bandung (Lapangan Supratman B)",
        "shelter": "yes",
        "pole": "no",
        "routes": [
          3415464,
          4636155,
          4642502,
          4648328,
          14364569
        ]
      }
    },
    {
      "type": "Feature",
      "geometry": {
        "type": "Point",
        "coordinates": [
          107.583161,
          -6.9075137
        ]
      },
      "properties": {
        "id": 9813502432,
        "name": "Abdurachman Saleh",
        "shelter": "yes",
        "pole": "no",
        "routes": [
          4645553,
          4646137,
          4816517,
          18782468
        ]
      }
    },
    {
      "type": "Feature",
      "geometry": {
        "type": "Point",
        "coordinates": [
          107.5516652,
          -6.8642648
        ]
      },
      "properties": {
        "id": 9814018336,
        "name": "SMK Kesehatan Bhakti Kencana Cimahi",
        "shelter": "yes",
        "pole": null,
        "routes": [
          4816517,
          4817613,
          5737865,
          5738483
        ]
      }
    },
    {
      "type": "Feature",
      "geometry": {
        "type": "Point",
        "coordinates": [
          107.5452782,
          -6.8773198
        ]
      },
      "properties": {
        "id": 9908576007,
        "name": "SMPN 6 Cimahi",
        "shelter": "yes",
        "pole": "no",
        "routes": [
          4817598,
          4818342,
          4818569,
          5737865,
          5738483,
          17830973,
          18766205,
          18782467,
          18782469
        ]
      }
    },
    {
      "type": "Feature",
      "geometry": {
        "type": "Point",
        "coordinates": [
          107.6321395,
          -6.9102236
        ]
      },
      "properties": {
        "id": 10153260769,
        "name": "Supratman 1",
        "shelter": "yes",
        "pole": "no",
        "routes": [
          3415464,
          4432470,
          4648328
        ]
      }
    },
    {
      "type": "Feature",
      "geometry": {
        "type": "Point",
        "coordinates": [
          107.5648355,
          -6.9033251
        ]
      },
      "properties": {
        "id": 10680256979,
        "name": "SMAN 13 Bandung A",
        "shelter": "yes",
        "pole": "no",
        "routes": [
          4816517,
          4817613,
          4817618,
          5737861,
          18766206,
          18782468
        ]
      }
    },
    {
      "type": "Feature",
      "geometry": {
        "type": "Point",
        "coordinates": [
          107.6053609,
          -6.9039636
        ]
      },
      "properties": {
        "id": 10793008383,
        "name": "Linggawastu",
        "shelter": "yes",
        "pole": "no",
        "routes": [
          4294474,
          4636013,
          4639770,
          4642502,
          4646137,
          4648025,
          4649813,
          4652460,
          16646484,
          17556157,
          17771221,
          17772447,
          18771223
        ]
      }
    },
    {
      "type": "Feature",
      "geometry": {
        "type": "Point",
        "coordinates": [
          107.6464771,
          -6.9437949
        ]
      },
      "properties": {
        "id": 10807828881,
        "name": "SMK Medika Com",
        "shelter": "yes",
        "pole": "no",
        "routes": [
          4284600,
          4642502,
          5517528,
          16634809,
          16650576,
          17771073,
          17771075,
          18768804
        ]
      }
    },
    {
      "type": "Feature",
      "geometry": {
        "type": "Point",
        "coordinates": [
          107.6438752,
          -6.9446125
        ]
      },
      "properties": {
        "id": 10807828893,
        "name": "STT Mandala",
        "shelter": "yes",
        "pole": "no",
        "routes": [
          4284600,
          4642502,
          5517528,
          16634809,
          16650576,
          17771073,
          17771075,
          18768804
        ]
      }
    },
    {
      "type": "Feature",
      "geometry": {
        "type": "Point",
        "coordinates": [
          107.642373,
          -6.9397909
        ]
      },
      "properties": {
        "id": 10807916217,
        "name": "Den Jasa Ang",
        "shelter": "yes",
        "pole": "no",
        "routes": [
          4284600,
          4308485,
          4308486,
          4642502,
          16650576
        ]
      }
    },
    {
      "type": "Feature",
      "geometry": {
        "type": "Point",
        "coordinates": [
          107.6424665,
          -6.9380524
        ]
      },
      "properties": {
        "id": 10807916218,
        "name": "Kebon Kangkung 11",
        "shelter": "yes",
        "pole": "no",
        "routes": [
          4284600,
          4308485,
          4308486,
          4642502,
          16650576
        ]
      }
    },
    {
      "type": "Feature",
      "geometry": {
        "type": "Point",
        "coordinates": [
          107.715754,
          -6.9325104
        ]
      },
      "properties": {
        "id": 10808283420,
        "name": "Seberang UIN Sunan Gunung Djati",
        "shelter": "yes",
        "pole": null,
        "routes": [
          17771223
        ]
      }
    },
    {
      "type": "Feature",
      "geometry": {
        "type": "Point",
        "coordinates": [
          107.7108139,
          -6.9265413
        ]
      },
      "properties": {
        "id": 10808738717,
        "name": "Borma Cipadung",
        "shelter": "yes",
        "pole": "no",
        "routes": [
          4644899,
          17771223
        ]
      }
    },
    {
      "type": "Feature",
      "geometry": {
        "type": "Point",
        "coordinates": [
          107.6562115,
          -6.9024362
        ]
      },
      "properties": {
        "id": 10814583285,
        "name": "Terminal Angkot Cicaheum",
        "shelter": "yes",
        "pole": null,
        "routes": [
          3415464,
          4291047,
          4291189,
          4635390,
          4635842,
          4636155,
          4637081,
          4637686
        ]
      }
    },
    {
      "type": "Feature",
      "geometry": {
        "type": "Point",
        "coordinates": [
          107.6568963,
          -6.9404659
        ]
      },
      "properties": {
        "id": 10814957476,
        "name": "SMKN 9 Bandung",
        "shelter": "yes",
        "pole": "no",
        "routes": [
          4284600,
          4642502,
          5517528,
          16634809,
          16650576,
          17771073,
          17771075,
          18768804
        ]
      }
    },
    {
      "type": "Feature",
      "geometry": {
        "type": "Point",
        "coordinates": [
          107.6382039,
          -6.9145037
        ]
      },
      "properties": {
        "id": 10815095639,
        "name": "STMIK",
        "shelter": "yes",
        "pole": "no",
        "routes": [
          3415464,
          4422442,
          4432470,
          4634057,
          4639769,
          4648328,
          15520324,
          15555900,
          15555901,
          16650513,
          16650577,
          17771223
        ]
      }
    },
    {
      "type": "Feature",
      "geometry": {
        "type": "Point",
        "coordinates": [
          107.6440979,
          -6.9194503
        ]
      },
      "properties": {
        "id": 10815096053,
        "name": "Daese Garmin",
        "shelter": "yes",
        "pole": "no",
        "routes": [
          3415464,
          4432470,
          4634057,
          4648328,
          4649692,
          16650513,
          16650577
        ]
      }
    },
    {
      "type": "Feature",
      "geometry": {
        "type": "Point",
        "coordinates": [
          107.6032818,
          -6.93537
        ]
      },
      "properties": {
        "id": 10815698556,
        "name": "Simpang Otista Astana Anyar",
        "shelter": "yes",
        "pole": "no",
        "routes": [
          5517528,
          5517546,
          5738886,
          5738887,
          17771221,
          17771223,
          17834085,
          17834107,
          18799375,
          18799378
        ]
      }
    },
    {
      "type": "Feature",
      "geometry": {
        "type": "Point",
        "coordinates": [
          107.6083271,
          -6.9454217
        ]
      },
      "properties": {
        "id": 10815837029,
        "name": "TK Kemala Bhayangkari",
        "shelter": "yes",
        "pole": "no",
        "routes": [
          5738876,
          5738878,
          5738883,
          17565369,
          18766208,
          18771079,
          18799376,
          18799379
        ]
      }
    },
    {
      "type": "Feature",
      "geometry": {
        "type": "Point",
        "coordinates": [
          107.6072114,
          -6.9224368
        ]
      },
      "properties": {
        "id": 11107827264,
        "name": "Bandros Alun-alun",
        "shelter": "yes",
        "pole": "no",
        "routes": []
      }
    },
    {
      "type": "Feature",
      "geometry": {
        "type": "Point",
        "coordinates": [
          107.581272,
          -6.8915583
        ]
      },
      "properties": {
        "id": 11132665443,
        "name": "Simpang Surya Sumantri Pasteur",
        "shelter": "yes",
        "pole": "no",
        "routes": [
          4420962
        ]
      }
    },
    {
      "type": "Feature",
      "geometry": {
        "type": "Point",
        "coordinates": [
          107.6000469,
          -6.906799
        ]
      },
      "properties": {
        "id": 11138593914,
        "name": "SDN Pajajaran",
        "shelter": "yes",
        "pole": "no",
        "routes": [
          4639770,
          4648025,
          4650417,
          4652511,
          4802257,
          4816517,
          16646484,
          16677557,
          18766208,
          18782468
        ]
      }
    },
    {
      "type": "Feature",
      "geometry": {
        "type": "Point",
        "coordinates": [
          107.6045445,
          -6.9078665
        ]
      },
      "properties": {
        "id": 11138593919,
        "name": "Kimia Farma Cicendo",
        "shelter": "yes",
        "pole": "no",
        "routes": [
          4294473,
          4294474,
          4423238,
          4639769,
          4649813,
          4650417,
          4652460,
          4802257,
          4816517,
          16677557,
          17556157,
          17771221,
          17772447,
          18782468
        ]
      }
    },
    {
      "type": "Feature",
      "geometry": {
        "type": "Point",
        "coordinates": [
          107.6051423,
          -6.907241
        ]
      },
      "properties": {
        "id": 11138593920,
        "name": "Pajajaran Timur",
        "shelter": "yes",
        "pole": "no",
        "routes": [
          4294473,
          4294474,
          4423238,
          4639769,
          4649813,
          4652460,
          17556157,
          17771221,
          17772447
        ]
      }
    },
    {
      "type": "Feature",
      "geometry": {
        "type": "Point",
        "coordinates": [
          107.6362581,
          -6.914741
        ]
      },
      "properties": {
        "id": 11180801380,
        "name": "GOR KONI",
        "shelter": "yes",
        "pole": "no",
        "routes": [
          3415464,
          4422442,
          4432470,
          4634057,
          4639769,
          4648328,
          15520324,
          15555900,
          15555901,
          16650513,
          17771223
        ]
      }
    },
    {
      "type": "Feature",
      "geometry": {
        "type": "Point",
        "coordinates": [
          107.5998468,
          -6.9375749
        ]
      },
      "properties": {
        "id": 11181449076,
        "name": "Muara",
        "shelter": "yes",
        "pole": "no",
        "routes": [
          5517546,
          15555901,
          16644335,
          16646697,
          17771221,
          17771223,
          17834085,
          17834106
        ]
      }
    },
    {
      "type": "Feature",
      "geometry": {
        "type": "Point",
        "coordinates": [
          107.4650732,
          -6.8641684
        ]
      },
      "properties": {
        "id": 11341654748,
        "name": "Shuttle Wahoo",
        "shelter": "yes",
        "pole": null,
        "routes": []
      }
    },
    {
      "type": "Feature",
      "geometry": {
        "type": "Point",
        "coordinates": [
          107.4686844,
          -6.8686768
        ]
      },
      "properties": {
        "id": 11489094683,
        "name": "CBCS/BAIS",
        "shelter": "yes",
        "pole": "no",
        "routes": [
          18771223
        ]
      }
    },
    {
      "type": "Feature",
      "geometry": {
        "type": "Point",
        "coordinates": [
          107.4660258,
          -6.8716272
        ]
      },
      "properties": {
        "id": 11489094685,
        "name": "Kamandaka",
        "shelter": "yes",
        "pole": "no",
        "routes": [
          18771223
        ]
      }
    },
    {
      "type": "Feature",
      "geometry": {
        "type": "Point",
        "coordinates": [
          107.6267411,
          -6.9095119
        ]
      },
      "properties": {
        "id": 11727886578,
        "name": "SMA Kartika",
        "shelter": "yes",
        "pole": "no",
        "routes": [
          4636155,
          4642502
        ]
      }
    },
    {
      "type": "Feature",
      "geometry": {
        "type": "Point",
        "coordinates": [
          107.5988525,
          -6.9162271
        ]
      },
      "properties": {
        "id": 11735248672,
        "name": "GKI Kebonjati",
        "shelter": "yes",
        "pole": "no",
        "routes": [
          4294474,
          4433069,
          4649813,
          4650417,
          4802257,
          4816517,
          15555900,
          16646484,
          16648408,
          16677557,
          17329177,
          17556157,
          17772447,
          18782468
        ]
      }
    },
    {
      "type": "Feature",
      "geometry": {
        "type": "Point",
        "coordinates": [
          107.6204455,
          -6.8991893
        ]
      },
      "properties": {
        "id": 11876087252,
        "name": "Jalan Merak",
        "shelter": "yes",
        "pole": "no",
        "routes": [
          4637686,
          4642924,
          4648025
        ]
      }
    },
    {
      "type": "Feature",
      "geometry": {
        "type": "Point",
        "coordinates": [
          107.6242341,
          -6.9495579
        ]
      },
      "properties": {
        "id": 11876512414,
        "name": "LPKIA A",
        "shelter": "yes",
        "pole": "no",
        "routes": [
          4308486,
          16648201,
          17565369,
          17772429,
          18766208,
          18768805
        ]
      }
    },
    {
      "type": "Feature",
      "geometry": {
        "type": "Point",
        "coordinates": [
          107.6145036,
          -6.8151188
        ]
      },
      "properties": {
        "id": 11877026811,
        "name": "Grand Hotel",
        "shelter": "yes",
        "pole": "no",
        "routes": [
          4421033,
          17553837,
          17556157,
          19218928
        ]
      }
    },
    {
      "type": "Feature",
      "geometry": {
        "type": "Point",
        "coordinates": [
          107.697091,
          -6.9368707
        ]
      },
      "properties": {
        "id": 11883722667,
        "name": "Shakti",
        "shelter": "yes",
        "pole": "no",
        "routes": [
          16650577,
          17565369,
          18768805
        ]
      }
    },
    {
      "type": "Feature",
      "geometry": {
        "type": "Point",
        "coordinates": [
          107.6794103,
          -6.9381511
        ]
      },
      "properties": {
        "id": 11883812970,
        "name": "SMKN 6 Bandung",
        "shelter": "yes",
        "pole": "no",
        "routes": [
          4284600,
          4433069,
          16648201,
          16650577,
          17565369,
          17772429,
          18768805
        ]
      }
    },
    {
      "type": "Feature",
      "geometry": {
        "type": "Point",
        "coordinates": [
          107.6633158,
          -6.9393267
        ]
      },
      "properties": {
        "id": 11883812974,
        "name": "Rancabolang",
        "shelter": "yes",
        "pole": "no",
        "routes": [
          4432470,
          4433069,
          4634057,
          16648201,
          16650577,
          17565369,
          17772429,
          18768805
        ]
      }
    },
    {
      "type": "Feature",
      "geometry": {
        "type": "Point",
        "coordinates": [
          107.6598219,
          -6.9399373
        ]
      },
      "properties": {
        "id": 11883812975,
        "name": "SMKN 7 Bandung",
        "shelter": "yes",
        "pole": "no",
        "routes": [
          4432470,
          4433069,
          4634057,
          16648201,
          16650577,
          17565369,
          17772429,
          18768805
        ]
      }
    },
    {
      "type": "Feature",
      "geometry": {
        "type": "Point",
        "coordinates": [
          107.6571056,
          -6.9407366
        ]
      },
      "properties": {
        "id": 11883812976,
        "name": "BPN Kanwil Jabar",
        "shelter": "yes",
        "pole": "no",
        "routes": [
          4432470,
          4433069,
          4634057,
          16648201,
          16650577,
          17565369,
          17772429,
          18768805
        ]
      }
    },
    {
      "type": "Feature",
      "geometry": {
        "type": "Point",
        "coordinates": [
          107.6441077,
          -6.9448872
        ]
      },
      "properties": {
        "id": 11883812978,
        "name": "UNINUS",
        "shelter": "yes",
        "pole": "no",
        "routes": [
          4432470,
          4433069,
          4634057,
          16648201,
          16650577,
          17565369,
          17772429,
          18768805
        ]
      }
    },
    {
      "type": "Feature",
      "geometry": {
        "type": "Point",
        "coordinates": [
          107.6362141,
          -6.8981794
        ]
      },
      "properties": {
        "id": 12013144933,
        "name": "ITENAS",
        "shelter": "yes",
        "pole": "no",
        "routes": [
          3415464,
          4637081,
          4637686,
          4642924,
          17564831
        ]
      }
    },
    {
      "type": "Feature",
      "geometry": {
        "type": "Point",
        "coordinates": [
          107.7014518,
          -6.9605166
        ]
      },
      "properties": {
        "id": 12327092486,
        "name": "Sekolah Al-Azhar Summarecon",
        "shelter": "yes",
        "pole": "no",
        "routes": []
      }
    },
    {
      "type": "Feature",
      "geometry": {
        "type": "Point",
        "coordinates": [
          107.5310012,
          -7.0236912
        ]
      },
      "properties": {
        "id": 12626357391,
        "name": "Pemkab Bandung",
        "shelter": "yes",
        "pole": null,
        "routes": [
          4807425
        ]
      }
    },
    {
      "type": "Feature",
      "geometry": {
        "type": "Point",
        "coordinates": [
          107.6203681,
          -6.8993861
        ]
      },
      "properties": {
        "id": 12628813997,
        "name": "PVMBG",
        "shelter": "yes",
        "pole": "no",
        "routes": [
          4291189,
          4423238
        ]
      }
    },
    {
      "type": "Feature",
      "geometry": {
        "type": "Point",
        "coordinates": [
          107.5938174,
          -6.9617764
        ]
      },
      "properties": {
        "id": 12634504452,
        "name": "Terminal Cibaduyut",
        "shelter": "yes",
        "pole": "no",
        "routes": [
          5517546,
          16677494
        ]
      }
    },
    {
      "type": "Feature",
      "geometry": {
        "type": "Point",
        "coordinates": [
          107.6992411,
          -6.9158647
        ]
      },
      "properties": {
        "id": 12638331187,
        "name": "RSUD Ujungberung",
        "shelter": "yes",
        "pole": "no",
        "routes": [
          4422550,
          5517528,
          16648201
        ]
      }
    },
    {
      "type": "Feature",
      "geometry": {
        "type": "Point",
        "coordinates": [
          107.6180035,
          -6.917894
        ]
      },
      "properties": {
        "id": 12806120210,
        "name": "Yogya Jalan Sunda",
        "shelter": "yes",
        "pole": "no",
        "routes": [
          4283719,
          4308300,
          4425938,
          4433069,
          4636155,
          19664371
        ]
      }
    },
    {
      "type": "Feature",
      "geometry": {
        "type": "Point",
        "coordinates": [
          107.6156953,
          -6.9311247
        ]
      },
      "properties": {
        "id": 12806120216,
        "name": "Unla",
        "shelter": "yes",
        "pole": "no",
        "routes": [
          3415464,
          4283719,
          4308300,
          4636155,
          4652619,
          16644187
        ]
      }
    },
    {
      "type": "Feature",
      "geometry": {
        "type": "Point",
        "coordinates": [
          107.6190558,
          -6.9313205
        ]
      },
      "properties": {
        "id": 12806120220,
        "name": "SMK Medina",
        "shelter": "yes",
        "pole": "no",
        "routes": [
          3415464,
          4652571,
          16644187,
          17771073
        ]
      }
    },
    {
      "type": "Feature",
      "geometry": {
        "type": "Point",
        "coordinates": [
          107.6378635,
          -6.8985904
        ]
      },
      "properties": {
        "id": 12806309237,
        "name": "STIE Ekuitas",
        "shelter": "yes",
        "pole": "no",
        "routes": [
          3415464,
          4637081,
          4637686,
          4642924
        ]
      }
    },
    {
      "type": "Feature",
      "geometry": {
        "type": "Point",
        "coordinates": [
          107.6407505,
          -6.8994024
        ]
      },
      "properties": {
        "id": 12806309239,
        "name": "YPKP Sanggabuana",
        "shelter": "yes",
        "pole": "no",
        "routes": [
          4291047,
          4291189,
          4635842
        ]
      }
    },
    {
      "type": "Feature",
      "geometry": {
        "type": "Point",
        "coordinates": [
          107.6881483,
          -6.9084569
        ]
      },
      "properties": {
        "id": 12806309256,
        "name": "Seberang SMAN 24 Bandung",
        "shelter": "yes",
        "pole": "no",
        "routes": [
          4422550,
          4644899,
          17771223,
          19452156
        ]
      }
    },
    {
      "type": "Feature",
      "geometry": {
        "type": "Point",
        "coordinates": [
          107.6934648,
          -6.9308254
        ]
      },
      "properties": {
        "id": 12806516342,
        "name": "Seberang Jalan Pasar Induk",
        "shelter": "yes",
        "pole": "no",
        "routes": [
          4422550,
          5517528
        ]
      }
    },
    {
      "type": "Feature",
      "geometry": {
        "type": "Point",
        "coordinates": [
          107.7099587,
          -6.9355706
        ]
      },
      "properties": {
        "id": 12806516347,
        "name": "Universitas Bhakti Kencana",
        "shelter": "yes",
        "pole": "no",
        "routes": [
          4808655,
          16650576,
          17771073,
          18768804
        ]
      }
    },
    {
      "type": "Feature",
      "geometry": {
        "type": "Point",
        "coordinates": [
          107.7214988,
          -6.9342099
        ]
      },
      "properties": {
        "id": 12806516352,
        "name": "SDN 050 Cibiru",
        "shelter": "yes",
        "pole": "no",
        "routes": [
          4422549,
          4808655,
          17771073
        ]
      }
    },
    {
      "type": "Feature",
      "geometry": {
        "type": "Point",
        "coordinates": [
          107.7137994,
          -6.9316136
        ]
      },
      "properties": {
        "id": 12806516355,
        "name": "SDN Cipadung",
        "shelter": "yes",
        "pole": null,
        "routes": [
          4422549,
          17771219
        ]
      }
    },
    {
      "type": "Feature",
      "geometry": {
        "type": "Point",
        "coordinates": [
          107.7108807,
          -6.926185
        ]
      },
      "properties": {
        "id": 12806516358,
        "name": "Seberang Borma Cipadung",
        "shelter": "yes",
        "pole": "no",
        "routes": [
          4422549,
          17771219
        ]
      }
    },
    {
      "type": "Feature",
      "geometry": {
        "type": "Point",
        "coordinates": [
          107.706167,
          -6.9173388
        ]
      },
      "properties": {
        "id": 12806516360,
        "name": "SDN Ciporeat",
        "shelter": "yes",
        "pole": "no",
        "routes": [
          4422549,
          17771219
        ]
      }
    },
    {
      "type": "Feature",
      "geometry": {
        "type": "Point",
        "coordinates": [
          107.5957948,
          -6.9353514
        ]
      },
      "properties": {
        "id": 12806717332,
        "name": "RS Imanuel Pintu Kopo",
        "shelter": "yes",
        "pole": "no",
        "routes": [
          16644187
        ]
      }
    },
    {
      "type": "Feature",
      "geometry": {
        "type": "Point",
        "coordinates": [
          107.6234516,
          -6.9273822
        ]
      },
      "properties": {
        "id": 12806717336,
        "name": "SD Al-Azhar 36 Bandung",
        "shelter": "yes",
        "pole": "no",
        "routes": [
          16634809,
          16644335,
          19664372
        ]
      }
    },
    {
      "type": "Feature",
      "geometry": {
        "type": "Point",
        "coordinates": [
          107.6601431,
          -6.939521
        ]
      },
      "properties": {
        "id": 12806851399,
        "name": "Suparma",
        "shelter": "yes",
        "pole": "no",
        "routes": [
          4284600,
          4642502,
          5517528,
          16634809,
          16650576,
          17771073,
          17771075,
          18768804
        ]
      }
    },
    {
      "type": "Feature",
      "geometry": {
        "type": "Point",
        "coordinates": [
          107.6775348,
          -6.9379414
        ]
      },
      "properties": {
        "id": 12806868617,
        "name": "Cisaranten Kulon",
        "shelter": "yes",
        "pole": "no",
        "routes": [
          4284600,
          5517528,
          16634809,
          16650576,
          17771073,
          17771075,
          18768804
        ]
      }
    },
    {
      "type": "Feature",
      "geometry": {
        "type": "Point",
        "coordinates": [
          107.679421,
          -6.937792
        ]
      },
      "properties": {
        "id": 12806868619,
        "name": "KPP Pratama Cicadas",
        "shelter": "yes",
        "pole": "no",
        "routes": [
          4284600,
          5517528,
          16634809,
          16650576,
          17771073,
          17771075,
          18768804
        ]
      }
    },
    {
      "type": "Feature",
      "geometry": {
        "type": "Point",
        "coordinates": [
          107.6580287,
          -6.9404384
        ]
      },
      "properties": {
        "id": 12806868630,
        "name": "Metro Indah Mall",
        "shelter": "yes",
        "pole": "no",
        "routes": [
          4432470,
          4433069,
          4634057,
          16648201,
          16650577,
          17565369,
          17772429,
          18768805
        ]
      }
    },
    {
      "type": "Feature",
      "geometry": {
        "type": "Point",
        "coordinates": [
          107.6280141,
          -6.9426293
        ]
      },
      "properties": {
        "id": 12808948216,
        "name": "ISBI Bandung",
        "shelter": "yes",
        "pole": "no",
        "routes": [
          4433069,
          4652619,
          16646697,
          19664371
        ]
      }
    },
    {
      "type": "Feature",
      "geometry": {
        "type": "Point",
        "coordinates": [
          107.606724,
          -6.9257638
        ]
      },
      "properties": {
        "id": 12808948221,
        "name": "SMPN 43 Bandung",
        "shelter": "yes",
        "pole": "no",
        "routes": [
          3415464,
          4283719,
          4308300,
          4636155
        ]
      }
    },
    {
      "type": "Feature",
      "geometry": {
        "type": "Point",
        "coordinates": [
          107.5964387,
          -6.8834895
        ]
      },
      "properties": {
        "id": 12809082546,
        "name": "Mandiri Sukajadi",
        "shelter": "yes",
        "pole": "no",
        "routes": [
          4291047,
          4308299,
          4308300,
          4432470,
          4637686,
          4802256,
          4802258,
          16644123,
          16677558,
          17553836,
          17771220
        ]
      }
    },
    {
      "type": "Feature",
      "geometry": {
        "type": "Point",
        "coordinates": [
          107.5962774,
          -6.8746215
        ]
      },
      "properties": {
        "id": 12809082547,
        "name": "Borma Setiabudhi",
        "shelter": "yes",
        "pole": "no",
        "routes": [
          4636013,
          4637081,
          4642502,
          17553837,
          17556157,
          17771221
        ]
      }
    },
    {
      "type": "Feature",
      "geometry": {
        "type": "Point",
        "coordinates": [
          107.6038557,
          -6.8916704
        ]
      },
      "properties": {
        "id": 12809151234,
        "name": "RS Advent",
        "shelter": "yes",
        "pole": "no",
        "routes": [
          4430737
        ]
      }
    },
    {
      "type": "Feature",
      "geometry": {
        "type": "Point",
        "coordinates": [
          107.585783,
          -6.8929271
        ]
      },
      "properties": {
        "id": 12809283850,
        "name": "Djundjunan 3",
        "shelter": "yes",
        "pole": "no",
        "routes": [
          4649813,
          4649915,
          4650417,
          17772447,
          18771223
        ]
      }
    },
    {
      "type": "Feature",
      "geometry": {
        "type": "Point",
        "coordinates": [
          107.5711605,
          -6.9157893
        ]
      },
      "properties": {
        "id": 12809314924,
        "name": "Seberang Gang Pelita",
        "shelter": "yes",
        "pole": "no",
        "routes": [
          4294473,
          4425899,
          4425942
        ]
      }
    },
    {
      "type": "Feature",
      "geometry": {
        "type": "Point",
        "coordinates": [
          107.570801,
          -6.9178505
        ]
      },
      "properties": {
        "id": 12809314926,
        "name": "Sunson Cijerah",
        "shelter": "yes",
        "pole": "no",
        "routes": [
          4294473,
          4425899
        ]
      }
    },
    {
      "type": "Feature",
      "geometry": {
        "type": "Point",
        "coordinates": [
          107.5695538,
          -6.921419
        ]
      },
      "properties": {
        "id": 12809314927,
        "name": "Seberang SDN 093 Tunas Harapan Cijerah",
        "shelter": "yes",
        "pole": null,
        "routes": [
          4294473,
          4425899
        ]
      }
    },
    {
      "type": "Feature",
      "geometry": {
        "type": "Point",
        "coordinates": [
          107.569027,
          -6.921786
        ]
      },
      "properties": {
        "id": 12809314929,
        "name": "SDN 061 Cijerah",
        "shelter": "yes",
        "pole": null,
        "routes": [
          4645553,
          4646137
        ]
      }
    },
    {
      "type": "Feature",
      "geometry": {
        "type": "Point",
        "coordinates": [
          107.5684056,
          -6.9225319
        ]
      },
      "properties": {
        "id": 12809314931,
        "name": "Masjid Jami Al Istiqomah",
        "shelter": "yes",
        "pole": null,
        "routes": [
          4294473,
          4425899
        ]
      }
    },
    {
      "type": "Feature",
      "geometry": {
        "type": "Point",
        "coordinates": [
          107.5661299,
          -6.9267717
        ]
      },
      "properties": {
        "id": 12809314933,
        "name": "Simpang Bojong Raya",
        "shelter": "yes",
        "pole": null,
        "routes": [
          4294473,
          4650925
        ]
      }
    },
    {
      "type": "Feature",
      "geometry": {
        "type": "Point",
        "coordinates": [
          107.5700989,
          -6.9376108
        ]
      },
      "properties": {
        "id": 12809314935,
        "name": "Holis Regency",
        "shelter": "yes",
        "pole": null,
        "routes": [
          4294473
        ]
      }
    },
    {
      "type": "Feature",
      "geometry": {
        "type": "Point",
        "coordinates": [
          107.5675292,
          -6.9417866
        ]
      },
      "properties": {
        "id": 12809314937,
        "name": "Griya Holis",
        "shelter": "yes",
        "pole": null,
        "routes": [
          17834085,
          17834107
        ]
      }
    },
    {
      "type": "Feature",
      "geometry": {
        "type": "Point",
        "coordinates": [
          107.5936258,
          -6.9590518
        ]
      },
      "properties": {
        "id": 12809314939,
        "name": "TVRI Bandung",
        "shelter": "yes",
        "pole": "no",
        "routes": [
          5517546
        ]
      }
    },
    {
      "type": "Feature",
      "geometry": {
        "type": "Point",
        "coordinates": [
          107.5942651,
          -6.9367279
        ]
      },
      "properties": {
        "id": 12809314940,
        "name": "Barat Simpang Imanuel",
        "shelter": "yes",
        "pole": "no",
        "routes": [
          16677494
        ]
      }
    },
    {
      "type": "Feature",
      "geometry": {
        "type": "Point",
        "coordinates": [
          107.6198701,
          -6.9236453
        ]
      },
      "properties": {
        "id": 12809314943,
        "name": "Sekolah BPI",
        "shelter": "yes",
        "pole": "no",
        "routes": [
          16650513
        ]
      }
    },
    {
      "type": "Feature",
      "geometry": {
        "type": "Point",
        "coordinates": [
          107.6121291,
          -6.8935654
        ]
      },
      "properties": {
        "id": 12813237912,
        "name": "Ganesha Ciungwanara",
        "shelter": "yes",
        "pole": "no",
        "routes": [
          4422442,
          4646137
        ]
      }
    },
    {
      "type": "Feature",
      "geometry": {
        "type": "Point",
        "coordinates": [
          107.6113069,
          -6.8934006
        ]
      },
      "properties": {
        "id": 12813237914,
        "name": "ITB Ganesha B",
        "shelter": "yes",
        "pole": "no",
        "routes": [
          15660998,
          16644061
        ]
      }
    },
    {
      "type": "Feature",
      "geometry": {
        "type": "Point",
        "coordinates": [
          107.6095893,
          -6.8934125
        ]
      },
      "properties": {
        "id": 12813237925,
        "name": "Klinik Pratama ITB",
        "shelter": "yes",
        "pole": "no",
        "routes": [
          16644061
        ]
      }
    },
    {
      "type": "Feature",
      "geometry": {
        "type": "Point",
        "coordinates": [
          107.6094548,
          -6.8933053
        ]
      },
      "properties": {
        "id": 12813237927,
        "name": "Lapangan Sipil",
        "shelter": "yes",
        "pole": "no",
        "routes": [
          4422442,
          4646137
        ]
      }
    },
    {
      "type": "Feature",
      "geometry": {
        "type": "Point",
        "coordinates": [
          107.5780454,
          -6.911862
        ]
      },
      "properties": {
        "id": 12813251524,
        "name": "GKBI Andir",
        "shelter": "yes",
        "pole": "no",
        "routes": [
          4294473,
          4425899,
          18782467,
          18782469
        ]
      }
    },
    {
      "type": "Feature",
      "geometry": {
        "type": "Point",
        "coordinates": [
          107.5952357,
          -6.8593363
        ]
      },
      "properties": {
        "id": 12816121759,
        "name": "Terminal Ledeng",
        "shelter": "yes",
        "pole": "no",
        "routes": [
          4291047,
          4308300,
          4432470,
          4636013,
          4637081,
          4642502,
          17771221
        ]
      }
    },
    {
      "type": "Feature",
      "geometry": {
        "type": "Point",
        "coordinates": [
          107.6626665,
          -6.9465146
        ]
      },
      "properties": {
        "id": 12816172250,
        "name": "Terminal Margahayu Raya",
        "shelter": "yes",
        "pole": null,
        "routes": [
          4432470,
          4642502
        ]
      }
    },
    {
      "type": "Feature",
      "geometry": {
        "type": "Point",
        "coordinates": [
          107.6195327,
          -6.9058903
        ]
      },
      "properties": {
        "id": 12947327453,
        "name": "TK Taruna Bakti",
        "shelter": "yes",
        "pole": "no",
        "routes": [
          4642502
        ]
      }
    },
    {
      "type": "Feature",
      "geometry": {
        "type": "Point",
        "coordinates": [
          107.5745442,
          -6.9440044
        ]
      },
      "properties": {
        "id": 12997502200,
        "name": "SMA Negeri 17 Bandung",
        "shelter": "yes",
        "pole": null,
        "routes": [
          4294473,
          17834086,
          17834107
        ]
      }
    },
    {
      "type": "Feature",
      "geometry": {
        "type": "Point",
        "coordinates": [
          107.5388141,
          -6.902696
        ]
      },
      "properties": {
        "id": 13009951576,
        "name": "Seberang SMK Negeri 1 Cimahi",
        "shelter": "yes",
        "pole": "no",
        "routes": [
          4820225,
          5737860
        ]
      }
    },
    {
      "type": "Feature",
      "geometry": {
        "type": "Point",
        "coordinates": [
          107.5547666,
          -6.8870252
        ]
      },
      "properties": {
        "id": 13009985405,
        "name": "Samsat Cimahi",
        "shelter": "yes",
        "pole": null,
        "routes": [
          17830973,
          18782467,
          18782469,
          18797950
        ]
      }
    },
    {
      "type": "Feature",
      "geometry": {
        "type": "Point",
        "coordinates": [
          107.5941995,
          -7.0278812
        ]
      },
      "properties": {
        "id": 13010020402,
        "name": "Patal Banjaran",
        "shelter": "yes",
        "pole": null,
        "routes": [
          5738886,
          18799375
        ]
      }
    },
    {
      "type": "Feature",
      "geometry": {
        "type": "Point",
        "coordinates": [
          107.596872,
          -7.0188654
        ]
      },
      "properties": {
        "id": 13010020412,
        "name": "SD Negeri Pameungpeuk 01",
        "shelter": "yes",
        "pole": "no",
        "routes": [
          5738886,
          18799375
        ]
      }
    },
    {
      "type": "Feature",
      "geometry": {
        "type": "Point",
        "coordinates": [
          107.5474972,
          -7.0169291
        ]
      },
      "properties": {
        "id": 13010031524,
        "name": "Warung Lobak",
        "shelter": "yes",
        "pole": null,
        "routes": [
          4807424
        ]
      }
    },
    {
      "type": "Feature",
      "geometry": {
        "type": "Point",
        "coordinates": [
          107.5786806,
          -6.9616395
        ]
      },
      "properties": {
        "id": 13010044895,
        "name": "Nata Endah",
        "shelter": "yes",
        "pole": "no",
        "routes": [
          4807425
        ]
      }
    },
    {
      "type": "Feature",
      "geometry": {
        "type": "Point",
        "coordinates": [
          107.6028851,
          -6.9340575
        ]
      },
      "properties": {
        "id": 13012012587,
        "name": "Terminal Tegallega",
        "shelter": "yes",
        "pole": "no",
        "routes": [
          5738878,
          5738883,
          5738886,
          5738887,
          17834085,
          17834086,
          18799375,
          18799376
        ]
      }
    },
    {
      "type": "Feature",
      "geometry": {
        "type": "Point",
        "coordinates": [
          107.6070572,
          -6.9412286
        ]
      },
      "properties": {
        "id": 13022508896,
        "name": "Mohammad Toha Pelindung Hewan",
        "shelter": "yes",
        "pole": "no",
        "routes": [
          5738886,
          5738887,
          18799375,
          18799378
        ]
      }
    },
    {
      "type": "Feature",
      "geometry": {
        "type": "Point",
        "coordinates": [
          107.5831138,
          -6.9454826
        ]
      },
      "properties": {
        "id": 13051904700,
        "name": "DPKP Kota Bandung",
        "shelter": "yes",
        "pole": null,
        "routes": [
          4646137,
          17834085,
          17834106
        ]
      }
    },
    {
      "type": "Feature",
      "geometry": {
        "type": "Point",
        "coordinates": [
          107.5023417,
          -6.8974798
        ]
      },
      "properties": {
        "id": 13073493928,
        "name": "Simpang Cangkorah Giriasih",
        "shelter": "yes",
        "pole": "no",
        "routes": [
          5738483
        ]
      }
    },
    {
      "type": "Feature",
      "geometry": {
        "type": "Point",
        "coordinates": [
          107.8383813,
          -6.9744136
        ]
      },
      "properties": {
        "id": 13075228468,
        "name": "MGI Cicalengka",
        "shelter": "yes",
        "pole": null,
        "routes": []
      }
    },
    {
      "type": "Feature",
      "geometry": {
        "type": "Point",
        "coordinates": [
          107.8710633,
          -7.0101706
        ]
      },
      "properties": {
        "id": 13075279057,
        "name": "Unisba Kampus Nagreg",
        "shelter": "yes",
        "pole": null,
        "routes": [
          5738881,
          18793587
        ]
      }
    },
    {
      "type": "Feature",
      "geometry": {
        "type": "Point",
        "coordinates": [
          107.6173328,
          -6.9242262
        ]
      },
      "properties": {
        "id": 13094341167,
        "name": "Apartemen Grand Asia Afrika",
        "shelter": "yes",
        "pole": "no",
        "routes": [
          4283719,
          4308300,
          4636155
        ]
      }
    },
    {
      "type": "Feature",
      "geometry": {
        "type": "Point",
        "coordinates": [
          107.5396688,
          -6.8647653
        ]
      },
      "properties": {
        "id": 13110401915,
        "name": "Masjid Siti Chodidjah",
        "shelter": "yes",
        "pole": "no",
        "routes": [
          4816517,
          4817613,
          5737865,
          5738483
        ]
      }
    },
    {
      "type": "Feature",
      "geometry": {
        "type": "Point",
        "coordinates": [
          107.5491915,
          -6.8615354
        ]
      },
      "properties": {
        "id": 13110411920,
        "name": "SMP Negeri 13 Cimahi",
        "shelter": "yes",
        "pole": null,
        "routes": [
          4816517,
          4817613,
          5737865,
          5738483
        ]
      }
    },
    {
      "type": "Feature",
      "geometry": {
        "type": "Point",
        "coordinates": [
          107.539566,
          -6.8545267
        ]
      },
      "properties": {
        "id": 13111710229,
        "name": "SDN Cipageran Mandiri 1",
        "shelter": "yes",
        "pole": null,
        "routes": [
          5738653
        ]
      }
    },
    {
      "type": "Feature",
      "geometry": {
        "type": "Point",
        "coordinates": [
          107.5447139,
          -6.860507
        ]
      },
      "properties": {
        "id": 13111730104,
        "name": "Seberang Kompleks Palm Indah",
        "shelter": "yes",
        "pole": "no",
        "routes": [
          5738486,
          5738653,
          5738654
        ]
      }
    },
    {
      "type": "Feature",
      "geometry": {
        "type": "Point",
        "coordinates": [
          107.6402639,
          -6.8938915
        ]
      },
      "properties": {
        "id": 13115942075,
        "name": "GOR C-TRA",
        "shelter": "yes",
        "pole": "no",
        "routes": [
          4636155
        ]
      }
    },
    {
      "type": "Feature",
      "geometry": {
        "type": "Point",
        "coordinates": [
          107.6941207,
          -6.955047
        ]
      },
      "properties": {
        "id": 13121528119,
        "name": "Taman Sumringah",
        "shelter": "yes",
        "pole": "no",
        "routes": []
      }
    },
    {
      "type": "Feature",
      "geometry": {
        "type": "Point",
        "coordinates": [
          107.6134632,
          -6.9136201
        ]
      },
      "properties": {
        "id": 13178943084,
        "name": "Seberang SMP Negeri 2 Bandung",
        "shelter": "yes",
        "pole": null,
        "routes": [
          19664372
        ]
      }
    },
    {
      "type": "Feature",
      "geometry": {
        "type": "Point",
        "coordinates": [
          107.6144795,
          -6.9151846
        ]
      },
      "properties": {
        "id": 13178984116,
        "name": "Seberang SMP Negeri 5 Bandung",
        "shelter": "yes",
        "pole": null,
        "routes": [
          19664372
        ]
      }
    },
    {
      "type": "Feature",
      "geometry": {
        "type": "Point",
        "coordinates": [
          107.6310884,
          -6.9394412
        ]
      },
      "properties": {
        "id": 13179094017,
        "name": "Kantor Kelurahan Turangga",
        "shelter": "yes",
        "pole": null,
        "routes": [
          16634809,
          19664372
        ]
      }
    },
    {
      "type": "Feature",
      "geometry": {
        "type": "Point",
        "coordinates": [
          107.6410443,
          -6.9509159
        ]
      },
      "properties": {
        "id": 13236503835,
        "name": "SD Negeri 184 Buah Batu",
        "shelter": "yes",
        "pole": "no",
        "routes": [
          4648328,
          16646697
        ]
      }
    },
    {
      "type": "Feature",
      "geometry": {
        "type": "Point",
        "coordinates": [
          107.5444027,
          -6.8785568
        ]
      },
      "properties": {
        "id": 13241070782,
        "name": "SMA Negeri 5 Cimahi",
        "shelter": "yes",
        "pole": "no",
        "routes": [
          4817598,
          4818342,
          4818569,
          5737865,
          5738483,
          17830973,
          18782467,
          18782469
        ]
      }
    },
    {
      "type": "Feature",
      "geometry": {
        "type": "Point",
        "coordinates": [
          107.6278139,
          -6.9331037
        ]
      },
      "properties": {
        "id": 13242752688,
        "name": "SPBU Sesko TNI",
        "shelter": "yes",
        "pole": "no",
        "routes": []
      }
    },
    {
      "type": "Feature",
      "geometry": {
        "type": "Point",
        "coordinates": [
          107.759522,
          -6.947659
        ]
      },
      "properties": {
        "id": 13243247554,
        "name": "Al Ma'soem",
        "shelter": "yes",
        "pole": "no",
        "routes": [
          4626701,
          4808696,
          14364569,
          17772430
        ]
      }
    }
  ]
}