{
  "type": "FeatureCollection",
  "features": [
    {
      "type": "Feature",
      "geometry": {
        "type": "Point",
        "coordinates": [
          107.6138388,
          -6.9124701
        ]
      },
      "properties": {
        "id": 2035792336,
        "name": "Taman Lalu Lintas Kota Bandung",
        "shelter": "no",
        "pole": "totem",
        "routes": [
          4283719,
          4433069,
          4635842,
          4636013,
          4639769,
          4642211,
          4643109,
          16644061,
          19664371
        ]
      }
    },
    {
      "type": "Feature",
      "geometry": {
        "type": "Point",
        "coordinates": [
          107.6206901,
          -6.8686294
        ]
      },
      "properties": {
        "id": 3373712060,
        "name": "SPBU Dago Atas",
        "shelter": "no",
        "pole": "totem",
        "routes": [
          4284600,
          4643109
        ]
      }
    },
    {
      "type": "Feature",
      "geometry": {
        "type": "Point",
        "coordinates": [
          107.6126685,
          -6.9262034
        ]
      },
      "properties": {
        "id": 3374033504,
        "name": "Jalan Jati",
        "shelter": "no",
        "pole": "totem",
        "routes": [
          4635842,
          4636013,
          4643109,
          4652460,
          4652571,
          16650513,
          17771073
        ]
      }
    },
    {
      "type": "Feature",
      "geometry": {
        "type": "Point",
        "coordinates": [
          107.6128298,
          -6.8995199
        ]
      },
      "properties": {
        "id": 3375103672,
        "name": "Danamon Cikapayang",
        "shelter": "no",
        "pole": "totem",
        "routes": [
          4643109
        ]
      }
    },
    {
      "type": "Feature",
      "geometry": {
        "type": "Point",
        "coordinates": [
          107.6173539,
          -6.8775126
        ]
      },
      "properties": {
        "id": 3375211646,
        "name": "Kanayakan",
        "shelter": "no",
        "pole": "totem",
        "routes": [
          4284600,
          4643109
        ]
      }
    },
    {
      "type": "Feature",
      "geometry": {
        "type": "Point",
        "coordinates": [
          107.6435561,
          -6.9113638
        ]
      },
      "properties": {
        "id": 3375689658,
        "name": "BTM",
        "shelter": "no",
        "pole": "totem",
        "routes": [
          4284600,
          4308485,
          4422442,
          4635390,
          4639770,
          4642502,
          15520324,
          16650513,
          16650514,
          16650576,
          16650577,
          17350725,
          17770945,
          17771223
        ]
      }
    },
    {
      "type": "Feature",
      "geometry": {
        "type": "Point",
        "coordinates": [
          107.6439192,
          -6.9310246
        ]
      },
      "properties": {
        "id": 3375689661,
        "name": "Honda Daya Motor Kiaracondong",
        "shelter": "no",
        "pole": "totem",
        "routes": [
          4284600,
          4308485,
          4308486,
          4635390,
          4642502,
          16650514,
          16650576
        ]
      }
    },
    {
      "type": "Feature",
      "geometry": {
        "type": "Point",
        "coordinates": [
          107.6345341,
          -6.9157665
        ]
      },
      "properties": {
        "id": 3375794693,
        "name": "Sukabumi Dalam",
        "shelter": "no",
        "pole": "totem",
        "routes": [
          4422442,
          4634057,
          4639769,
          15555900,
          15555901
        ]
      }
    },
    {
      "type": "Feature",
      "geometry": {
        "type": "Point",
        "coordinates": [
          107.6225299,
          -6.9304294
        ]
      },
      "properties": {
        "id": 3376171447,
        "name": "Simpang Pasar Palasari",
        "shelter": "no",
        "pole": "totem",
        "routes": [
          16644187
        ]
      }
    },
    {
      "type": "Feature",
      "geometry": {
        "type": "Point",
        "coordinates": [
          107.6336654,
          -6.9344181
        ]
      },
      "properties": {
        "id": 3376171451,
        "name": "Simpang Turangga Martanegara",
        "shelter": "no",
        "pole": "totem",
        "routes": [
          4635390
        ]
      }
    },
    {
      "type": "Feature",
      "geometry": {
        "type": "Point",
        "coordinates": [
          107.6342946,
          -6.9002914
        ]
      },
      "properties": {
        "id": 3376171457,
        "name": "Griya Pahlawan",
        "shelter": "no",
        "pole": "totem",
        "routes": [
          4291047,
          4635390,
          4635842,
          4642211
        ]
      }
    },
    {
      "type": "Feature",
      "geometry": {
        "type": "Point",
        "coordinates": [
          107.6341557,
          -6.9002864
        ]
      },
      "properties": {
        "id": 3376171458,
        "name": "Seberang Griya Pahlawan",
        "shelter": "no",
        "pole": "totem",
        "routes": [
          3415464,
          4425938,
          4636155,
          4637081
        ]
      }
    },
    {
      "type": "Feature",
      "geometry": {
        "type": "Point",
        "coordinates": [
          107.6371687,
          -6.8985385
        ]
      },
      "properties": {
        "id": 3376171462,
        "name": "Sukasenang Raya 1",
        "shelter": "no",
        "pole": "totem",
        "routes": [
          4291047,
          4291189,
          4635842,
          17564612
        ]
      }
    },
    {
      "type": "Feature",
      "geometry": {
        "type": "Point",
        "coordinates": [
          107.6439455,
          -6.8999587
        ]
      },
      "properties": {
        "id": 3376171465,
        "name": "Sukapada",
        "shelter": "no",
        "pole": "totem",
        "routes": [
          3415464,
          4636155,
          4637081,
          4637686,
          4642924,
          17564831
        ]
      }
    },
    {
      "type": "Feature",
      "geometry": {
        "type": "Point",
        "coordinates": [
          107.6566046,
          -6.9023065
        ]
      },
      "properties": {
        "id": 3376171470,
        "name": "Terminal Cicaheum",
        "shelter": "no",
        "pole": "totem",
        "routes": [
          15520324,
          17329177,
          17564612,
          17564831
        ]
      }
    },
    {
      "type": "Feature",
      "geometry": {
        "type": "Point",
        "coordinates": [
          107.616466,
          -6.9301524
        ]
      },
      "properties": {
        "id": 3376332196,
        "name": "Lauk Emas",
        "shelter": "no",
        "pole": "totem",
        "routes": [
          3415464,
          16644187
        ]
      }
    },
    {
      "type": "Feature",
      "geometry": {
        "type": "Point",
        "coordinates": [
          107.6195289,
          -6.9089241
        ]
      },
      "properties": {
        "id": 3376420326,
        "name": "PMI Kota Bandung",
        "shelter": "no",
        "pole": "totem",
        "routes": [
          4636155
        ]
      }
    },
    {
      "type": "Feature",
      "geometry": {
        "type": "Point",
        "coordinates": [
          107.6040037,
          -6.8959112
        ]
      },
      "properties": {
        "id": 3376669084,
        "name": "Cihampelas Eyckman",
        "shelter": "no",
        "pole": "totem",
        "routes": [
          4294474,
          4636013,
          4642502,
          4802257,
          17553837,
          17556157
        ]
      }
    },
    {
      "type": "Feature",
      "geometry": {
        "type": "Point",
        "coordinates": [
          107.6056867,
          -6.8835718
        ]
      },
      "properties": {
        "id": 3376673095,
        "name": "Gandok",
        "shelter": "no",
        "pole": "totem",
        "routes": [
          4637081,
          4637686
        ]
      }
    },
    {
      "type": "Feature",
      "geometry": {
        "type": "Point",
        "coordinates": [
          107.5936354,
          -6.8693777
        ]
      },
      "properties": {
        "id": 3376673103,
        "name": "Simpang Gegerkalong Hilir",
        "shelter": "no",
        "pole": "totem",
        "routes": [
          4636013,
          4637081,
          4642502,
          17553837,
          17556157,
          17771221
        ]
      }
    },
    {
      "type": "Feature",
      "geometry": {
        "type": "Point",
        "coordinates": [
          107.6095652,
          -6.8970841
        ]
      },
      "properties": {
        "id": 3376871369,
        "name": "Pelesiran",
        "shelter": "no",
        "pole": "totem",
        "routes": [
          4291047,
          4422442,
          4646137,
          16646484
        ]
      }
    },
    {
      "type": "Feature",
      "geometry": {
        "type": "Point",
        "coordinates": [
          107.6092842,
          -6.8987075
        ]
      },
      "properties": {
        "id": 3376871370,
        "name": "Balubur Town Square",
        "shelter": "no",
        "pole": "totem",
        "routes": [
          4291047,
          4422442,
          4646137,
          4648025,
          16646484
        ]
      }
    },
    {
      "type": "Feature",
      "geometry": {
        "type": "Point",
        "coordinates": [
          107.6281588,
          -6.9040897
        ]
      },
      "properties": {
        "id": 3376871373,
        "name": "Ciliwung",
        "shelter": "no",
        "pole": "totem",
        "routes": [
          4291047,
          4642211,
          4648328
        ]
      }
    },
    {
      "type": "Feature",
      "geometry": {
        "type": "Point",
        "coordinates": [
          107.5974769,
          -6.9050239
        ]
      },
      "properties": {
        "id": 3377321683,
        "name": "Istana Plaza",
        "shelter": "no",
        "pole": "totem",
        "routes": [
          4308299,
          4420962,
          16677558
        ]
      }
    },
    {
      "type": "Feature",
      "geometry": {
        "type": "Point",
        "coordinates": [
          107.6285878,
          -6.899801
        ]
      },
      "properties": {
        "id": 3377321690,
        "name": "Dapen Telkom",
        "shelter": "no",
        "pole": "totem",
        "routes": [
          4637686,
          4642924,
          4648025,
          17564831
        ]
      }
    },
    {
      "type": "Feature",
      "geometry": {
        "type": "Point",
        "coordinates": [
          107.5972577,
          -6.8989255
        ]
      },
      "properties": {
        "id": 3377322393,
        "name": "Garunggang Kulon",
        "shelter": "no",
        "pole": "totem",
        "routes": [
          4308299,
          4308300,
          4432470,
          4637686,
          4645553,
          4652511,
          4802258,
          16644123,
          16677558,
          17553836,
          17771220
        ]
      }
    },
    {
      "type": "Feature",
      "geometry": {
        "type": "Point",
        "coordinates": [
          107.5973584,
          -6.9015756
        ]
      },
      "properties": {
        "id": 3377322396,
        "name": "IWU",
        "shelter": "no",
        "pole": "totem",
        "routes": [
          4308299,
          4420962,
          4637686,
          4645553,
          16644123,
          16677558,
          17553836
        ]
      }
    },
    {
      "type": "Feature",
      "geometry": {
        "type": "Point",
        "coordinates": [
          107.5975125,
          -6.9013063
        ]
      },
      "properties": {
        "id": 3377322397,
        "name": "Seberang IWU",
        "shelter": "no",
        "pole": "totem",
        "routes": [
          4291189,
          4425899,
          4650417,
          4802257,
          16644124,
          16677557,
          17553837
        ]
      }
    },
    {
      "type": "Feature",
      "geometry": {
        "type": "Point",
        "coordinates": [
          107.6759432,
          -6.9046283
        ]
      },
      "properties": {
        "id": 3380407820,
        "name": "Borma Pasirimpun",
        "shelter": "no",
        "pole": "totem",
        "routes": [
          4422549,
          4642924,
          16644061,
          17771219
        ]
      }
    },
    {
      "type": "Feature",
      "geometry": {
        "type": "Point",
        "coordinates": [
          107.6856668,
          -6.9071785
        ]
      },
      "properties": {
        "id": 3380407821,
        "name": "Gerbang Pusjatan",
        "shelter": "no",
        "pole": "totem",
        "routes": [
          4422550,
          4644899,
          17771223,
          19452156
        ]
      }
    },
    {
      "type": "Feature",
      "geometry": {
        "type": "Point",
        "coordinates": [
          107.6656608,
          -6.9039605
        ]
      },
      "properties": {
        "id": 3380407823,
        "name": "SDN Cikadut",
        "shelter": "no",
        "pole": "totem",
        "routes": [
          4422549,
          4642924,
          16644061,
          17771219
        ]
      }
    },
    {
      "type": "Feature",
      "geometry": {
        "type": "Point",
        "coordinates": [
          107.6080404,
          -6.90457
        ]
      },
      "properties": {
        "id": 3380465566,
        "name": "Unisba",
        "shelter": "no",
        "pole": "totem",
        "routes": [
          4646137,
          16646484
        ]
      }
    },
    {
      "type": "Feature",
      "geometry": {
        "type": "Point",
        "coordinates": [
          107.5985172,
          -6.9226452
        ]
      },
      "properties": {
        "id": 3383341280,
        "name": "Karanganyar",
        "shelter": "no",
        "pole": "totem",
        "routes": [
          16644335,
          16646484,
          16677558,
          17771220
        ]
      }
    },
    {
      "type": "Feature",
      "geometry": {
        "type": "Point",
        "coordinates": [
          107.5980763,
          -6.9155756
        ]
      },
      "properties": {
        "id": 3383432850,
        "name": "Paskal Hypersquare",
        "shelter": "no",
        "pole": "totem",
        "routes": [
          4648025,
          16677558,
          17771220
        ]
      }
    },
    {
      "type": "Feature",
      "geometry": {
        "type": "Point",
        "coordinates": [
          107.6190269,
          -6.949139
        ]
      },
      "properties": {
        "id": 3384018112,
        "name": "PT LEN Industri A",
        "shelter": "no",
        "pole": "totem",
        "routes": [
          4308486,
          17565369,
          17772429,
          18766208,
          18768805
        ]
      }
    },
    {
      "type": "Feature",
      "geometry": {
        "type": "Point",
        "coordinates": [
          107.6228417,
          -6.9494319
        ]
      },
      "properties": {
        "id": 3384018117,
        "name": "STIE Inaba",
        "shelter": "no",
        "pole": "totem",
        "routes": [
          4308486,
          16648201,
          17565369,
          17772429,
          18768805
        ]
      }
    },
    {
      "type": "Feature",
      "geometry": {
        "type": "Point",
        "coordinates": [
          107.5981847,
          -6.9010407
        ]
      },
      "properties": {
        "id": 3384696379,
        "name": "Taman Westhoff",
        "shelter": "no",
        "pole": "totem",
        "routes": [
          4420961,
          4652511,
          17772446,
          18771222
        ]
      }
    },
    {
      "type": "Feature",
      "geometry": {
        "type": "Point",
        "coordinates": [
          107.5829083,
          -6.8921945
        ]
      },
      "properties": {
        "id": 3384696383,
        "name": "BPJS Pasteur",
        "shelter": "no",
        "pole": "totem",
        "routes": [
          4649813,
          4649915,
          4650417,
          17772447,
          18771223
        ]
      }
    },
    {
      "type": "Feature",
      "geometry": {
        "type": "Point",
        "coordinates": [
          107.5968917,
          -6.8913252
        ]
      },
      "properties": {
        "id": 3384820217,
        "name": "Sukagalih PVJ",
        "shelter": "no",
        "pole": "totem",
        "routes": [
          4308299,
          4308300,
          4432470,
          4649915,
          4802258,
          16644123,
          16677558,
          17553836,
          17771220
        ]
      }
    },
    {
      "type": "Feature",
      "geometry": {
        "type": "Point",
        "coordinates": [
          107.6232892,
          -6.9363191
        ]
      },
      "properties": {
        "id": 3386379788,
        "name": "BKR Buah Batu",
        "shelter": "no",
        "pole": "totem",
        "routes": [
          4425956,
          17770945
        ]
      }
    },
    {
      "type": "Feature",
      "geometry": {
        "type": "Point",
        "coordinates": [
          107.6282551,
          -6.9426484
        ]
      },
      "properties": {
        "id": 3386379790,
        "name": "Seberang ISBI Bandung",
        "shelter": "no",
        "pole": "totem",
        "routes": [
          4425956,
          4652571,
          16634809,
          17771073,
          19664372
        ]
      }
    },
    {
      "type": "Feature",
      "geometry": {
        "type": "Point",
        "coordinates": [
          107.6110208,
          -6.9216731
        ]
      },
      "properties": {
        "id": 5358212374,
        "name": "Gedung Keuangan Negara/KM 0",
        "shelter": "no",
        "pole": "totem",
        "routes": [
          15520324,
          15555900,
          17771223,
          18771223
        ]
      }
    },
    {
      "type": "Feature",
      "geometry": {
        "type": "Point",
        "coordinates": [
          107.5990044,
          -6.8941076
        ]
      },
      "properties": {
        "id": 5829097385,
        "name": "Makmur",
        "shelter": "no",
        "pole": "totem",
        "routes": [
          4321908,
          4425899,
          4430737,
          4642502,
          16644124,
          16677557
        ]
      }
    },
    {
      "type": "Feature",
      "geometry": {
        "type": "Point",
        "coordinates": [
          107.622935,
          -6.9069055
        ]
      },
      "properties": {
        "id": 9735217307,
        "name": "Pusdiklat PU",
        "shelter": "no",
        "pole": "totem",
        "routes": [
          4284600,
          4642502
        ]
      }
    },
    {
      "type": "Feature",
      "geometry": {
        "type": "Point",
        "coordinates": [
          107.5940999,
          -6.9384699
        ]
      },
      "properties": {
        "id": 9737570944,
        "name": "SDN Babakan Tarogong",
        "shelter": "no",
        "pole": "totem",
        "routes": [
          4425956,
          16677494,
          17770945,
          17771219,
          17771220,
          17834086,
          17834107,
          18771078
        ]
      }
    },
    {
      "type": "Feature",
      "geometry": {
        "type": "Point",
        "coordinates": [
          107.4668035,
          -6.8664598
        ]
      },
      "properties": {
        "id": 9857446207,
        "name": "IKEA Kota Baru Parahyangan",
        "shelter": "no",
        "pole": "totem",
        "routes": [
          18766205,
          18766206
        ]
      }
    },
    {
      "type": "Feature",
      "geometry": {
        "type": "Point",
        "coordinates": [
          107.6162121,
          -6.8979268
        ]
      },
      "properties": {
        "id": 10676406092,
        "name": "Panatayudha A",
        "shelter": "no",
        "pole": "totem",
        "routes": [
          4284600,
          4642924
        ]
      }
    },
    {
      "type": "Feature",
      "geometry": {
        "type": "Point",
        "coordinates": [
          107.6251519,
          -6.9342818
        ]
      },
      "properties": {
        "id": 10771913955,
        "name": "Hotel Horison B",
        "shelter": "no",
        "pole": "totem",
        "routes": [
          4425956,
          4652571,
          14364569,
          17770945,
          17771073
        ]
      }
    },
    {
      "type": "Feature",
      "geometry": {
        "type": "Point",
        "coordinates": [
          107.6127393,
          -6.8975222
        ]
      },
      "properties": {
        "id": 10778322180,
        "name": "Kartikasari A",
        "shelter": "no",
        "pole": "totem",
        "routes": [
          4283719,
          4292372,
          14298213
        ]
      }
    },
    {
      "type": "Feature",
      "geometry": {
        "type": "Point",
        "coordinates": [
          107.6059089,
          -6.926731
        ]
      },
      "properties": {
        "id": 10794770951,
        "name": "ITC Kebon Kalapa",
        "shelter": "no",
        "pole": "totem",
        "routes": [
          3415464,
          4283719,
          4308300,
          4636155,
          4652511,
          4652571,
          16650512,
          16650513,
          17771073,
          17771219,
          18766208
        ]
      }
    },
    {
      "type": "Feature",
      "geometry": {
        "type": "Point",
        "coordinates": [
          107.6021925,
          -6.9479444
        ]
      },
      "properties": {
        "id": 10799198965,
        "name": "Karasak Lama",
        "shelter": "no",
        "pole": "totem",
        "routes": [
          4308486,
          17772429,
          17772430,
          18768805
        ]
      }
    },
    {
      "type": "Feature",
      "geometry": {
        "type": "Point",
        "coordinates": [
          107.5982644,
          -6.919464
        ]
      },
      "properties": {
        "id": 10804635061,
        "name": "Seberang SMAN 4 Bandung",
        "shelter": "no",
        "pole": "totem",
        "routes": [
          15555900,
          16646484,
          16677558,
          17771220
        ]
      }
    },
    {
      "type": "Feature",
      "geometry": {
        "type": "Point",
        "coordinates": [
          107.6718944,
          -6.9043787
        ]
      },
      "properties": {
        "id": 10811796734,
        "name": "Gang H.M. Syarief",
        "shelter": "no",
        "pole": "totem",
        "routes": [
          4422549,
          4642924,
          16644061,
          17771219
        ]
      }
    },
    {
      "type": "Feature",
      "geometry": {
        "type": "Point",
        "coordinates": [
          107.6459615,
          -6.9073358
        ]
      },
      "properties": {
        "id": 10811881688,
        "name": "Seberang Gateway Cicadas",
        "shelter": "no",
        "pole": "totem",
        "routes": [
          4422442,
          15520324,
          17771223
        ]
      }
    },
    {
      "type": "Feature",
      "geometry": {
        "type": "Point",
        "coordinates": [
          107.644463,
          -6.922166
        ]
      },
      "properties": {
        "id": 10814487869,
        "name": "Griya Kiaracondong",
        "shelter": "no",
        "pole": "totem",
        "routes": [
          4284600,
          4308485,
          4308486,
          4635390,
          16650514,
          16650576
        ]
      }
    },
    {
      "type": "Feature",
      "geometry": {
        "type": "Point",
        "coordinates": [
          107.5937728,
          -6.868262
        ]
      },
      "properties": {
        "id": 10815546316,
        "name": "Poltekpar NHI",
        "shelter": "no",
        "pole": "totem",
        "routes": [
          4636013,
          4637081,
          4642502,
          17553837,
          17556157,
          17771221
        ]
      }
    },
    {
      "type": "Feature",
      "geometry": {
        "type": "Point",
        "coordinates": [
          107.5937395,
          -6.9196251
        ]
      },
      "properties": {
        "id": 10815672679,
        "name": "Sukamanah",
        "shelter": "no",
        "pole": "totem",
        "routes": [
          15520324
        ]
      }
    },
    {
      "type": "Feature",
      "geometry": {
        "type": "Point",
        "coordinates": [
          107.6033297,
          -6.934006
        ]
      },
      "properties": {
        "id": 10815698569,
        "name": "Taman Tegallega",
        "shelter": "no",
        "pole": "totem",
        "routes": [
          5517528,
          5517546,
          17771221,
          17771223,
          17834107,
          18766207,
          18799378
        ]
      }
    },
    {
      "type": "Feature",
      "geometry": {
        "type": "Point",
        "coordinates": [
          107.6081209,
          -6.888821
        ]
      },
      "properties": {
        "id": 11104669192,
        "name": "FTI ITB",
        "shelter": "no",
        "pole": "totem",
        "routes": [
          4294473,
          4637081
        ]
      }
    },
    {
      "type": "Feature",
      "geometry": {
        "type": "Point",
        "coordinates": [
          107.6080726,
          -6.8888321
        ]
      },
      "properties": {
        "id": 11104669193,
        "name": "BATAN",
        "shelter": "no",
        "pole": "totem",
        "routes": [
          4291047,
          16646484
        ]
      }
    },
    {
      "type": "Feature",
      "geometry": {
        "type": "Point",
        "coordinates": [
          107.611575,
          -6.884347
        ]
      },
      "properties": {
        "id": 11104669194,
        "name": "Sangkuriang",
        "shelter": "no",
        "pole": "totem",
        "routes": [
          16646484
        ]
      }
    },
    {
      "type": "Feature",
      "geometry": {
        "type": "Point",
        "coordinates": [
          107.6129699,
          -6.8955452
        ]
      },
      "properties": {
        "id": 11104718107,
        "name": "STMIK LIKMI",
        "shelter": "no",
        "pole": "totem",
        "routes": [
          4643109
        ]
      }
    },
    {
      "type": "Feature",
      "geometry": {
        "type": "Point",
        "coordinates": [
          107.6126412,
          -6.8995138
        ]
      },
      "properties": {
        "id": 11104718112,
        "name": "La Belle Cikapayang",
        "shelter": "no",
        "pole": "totem",
        "routes": [
          4283719,
          4292372
        ]
      }
    },
    {
      "type": "Feature",
      "geometry": {
        "type": "Point",
        "coordinates": [
          107.6117483,
          -6.9017667
        ]
      },
      "properties": {
        "id": 11104718126,
        "name": "Seberang Superindo Dago",
        "shelter": "no",
        "pole": "totem",
        "routes": [
          4283719,
          4292372
        ]
      }
    },
    {
      "type": "Feature",
      "geometry": {
        "type": "Point",
        "coordinates": [
          107.6328349,
          -6.9143539
        ]
      },
      "properties": {
        "id": 11180801385,
        "name": "IBCC",
        "shelter": "no",
        "pole": "totem",
        "routes": [
          15520324,
          17771223
        ]
      }
    },
    {
      "type": "Feature",
      "geometry": {
        "type": "Point",
        "coordinates": [
          107.6395012,
          -6.9106371
        ]
      },
      "properties": {
        "id": 11181354888,
        "name": "Awi Bitung",
        "shelter": "no",
        "pole": "totem",
        "routes": [
          4284600,
          4308485,
          4635390,
          4639770,
          4642502,
          16644061,
          16650513,
          16650577,
          17329177,
          17350725,
          17770945,
          17771219
        ]
      }
    },
    {
      "type": "Feature",
      "geometry": {
        "type": "Point",
        "coordinates": [
          107.6372176,
          -6.9118447
        ]
      },
      "properties": {
        "id": 11181354889,
        "name": "Cikaso",
        "shelter": "no",
        "pole": "totem",
        "routes": [
          4284600,
          4308485,
          4635390,
          4639770,
          4642502,
          16644061,
          16650513,
          16650577,
          17329177,
          17350725,
          17770945,
          17771219
        ]
      }
    },
    {
      "type": "Feature",
      "geometry": {
        "type": "Point",
        "coordinates": [
          107.6278986,
          -6.9236573
        ]
      },
      "properties": {
        "id": 11181354929,
        "name": "SPBU Laswi",
        "shelter": "no",
        "pole": "totem",
        "routes": [
          16644187
        ]
      }
    },
    {
      "type": "Feature",
      "geometry": {
        "type": "Point",
        "coordinates": [
          107.6282475,
          -6.9235994
        ]
      },
      "properties": {
        "id": 11181354930,
        "name": "Simpang Laswi Gatot Subroto",
        "shelter": "no",
        "pole": "totem",
        "routes": []
      }
    },
    {
      "type": "Feature",
      "geometry": {
        "type": "Point",
        "coordinates": [
          107.6260305,
          -6.9308256
        ]
      },
      "properties": {
        "id": 11181448984,
        "name": "Jalan Kangkung",
        "shelter": "no",
        "pole": "totem",
        "routes": [
          4433069,
          17770945,
          19664371
        ]
      }
    },
    {
      "type": "Feature",
      "geometry": {
        "type": "Point",
        "coordinates": [
          107.6262234,
          -6.9308795
        ]
      },
      "properties": {
        "id": 11181448985,
        "name": "Seberang Jalan Kangkung",
        "shelter": "no",
        "pole": "totem",
        "routes": [
          15555901,
          16634809,
          19664372
        ]
      }
    },
    {
      "type": "Feature",
      "geometry": {
        "type": "Point",
        "coordinates": [
          107.609698,
          -6.9100874
        ]
      },
      "properties": {
        "id": 11549655660,
        "name": "Museum Kota Bandung",
        "shelter": "no",
        "pole": "totem",
        "routes": [
          4636013,
          4639770,
          18766207,
          19664372
        ]
      }
    },
    {
      "type": "Feature",
      "geometry": {
        "type": "Point",
        "coordinates": [
          107.600639,
          -6.9293733
        ]
      },
      "properties": {
        "id": 11690954337,
        "name": "Astana Anyar RSIA Kota Bandung",
        "shelter": "no",
        "pole": "totem",
        "routes": [
          14298213,
          16646484,
          16677558
        ]
      }
    },
    {
      "type": "Feature",
      "geometry": {
        "type": "Point",
        "coordinates": [
          107.6291595,
          -6.9134182
        ]
      },
      "properties": {
        "id": 11707030834,
        "name": "Hotel Grand Tebu",
        "shelter": "no",
        "pole": "totem",
        "routes": [
          4284600,
          15660998
        ]
      }
    },
    {
      "type": "Feature",
      "geometry": {
        "type": "Point",
        "coordinates": [
          107.6020606,
          -6.920606
        ]
      },
      "properties": {
        "id": 11711275749,
        "name": "KEB Hana Bank",
        "shelter": "no",
        "pole": "totem",
        "routes": [
          4294474,
          15520324,
          15555900,
          16677557,
          18766205
        ]
      }
    },
    {
      "type": "Feature",
      "geometry": {
        "type": "Point",
        "coordinates": [
          107.6133144,
          -6.9182109
        ]
      },
      "properties": {
        "id": 11735248677,
        "name": "RSU Bungsu",
        "shelter": "no",
        "pole": "totem",
        "routes": [
          4425938,
          16644061,
          17329177,
          17350725,
          19664372
        ]
      }
    },
    {
      "type": "Feature",
      "geometry": {
        "type": "Point",
        "coordinates": [
          107.6221927,
          -6.9199678
        ]
      },
      "properties": {
        "id": 11735248681,
        "name": "Seberang Pasar Kosambi",
        "shelter": "no",
        "pole": "totem",
        "routes": [
          4433069,
          15520324,
          17771223
        ]
      }
    },
    {
      "type": "Feature",
      "geometry": {
        "type": "Point",
        "coordinates": [
          107.6492732,
          -6.9130608
        ]
      },
      "properties": {
        "id": 11735248695,
        "name": "Seberang Borma Antapani",
        "shelter": "no",
        "pole": "totem",
        "routes": [
          4639769,
          15555900
        ]
      }
    },
    {
      "type": "Feature",
      "geometry": {
        "type": "Point",
        "coordinates": [
          107.6198025,
          -6.921077
        ]
      },
      "properties": {
        "id": 11735248703,
        "name": "Katapang Kaler",
        "shelter": "no",
        "pole": "totem",
        "routes": [
          16644061,
          17329177,
          17350725,
          17771219
        ]
      }
    },
    {
      "type": "Feature",
      "geometry": {
        "type": "Point",
        "coordinates": [
          107.6106485,
          -6.9104333
        ]
      },
      "properties": {
        "id": 11739021632,
        "name": "Taman Sejarah Balai Kota Bandung",
        "shelter": "no",
        "pole": "totem",
        "routes": [
          4308300,
          4432470,
          4433069,
          4639769,
          4642211,
          15555900,
          18771223
        ]
      }
    },
    {
      "type": "Feature",
      "geometry": {
        "type": "Point",
        "coordinates": [
          107.6104987,
          -6.9064821
        ]
      },
      "properties": {
        "id": 11739021635,
        "name": "Hotel The-One-O-One A",
        "shelter": "no",
        "pole": "totem",
        "routes": [
          4283719,
          4292372,
          14298213
        ]
      }
    },
    {
      "type": "Feature",
      "geometry": {
        "type": "Point",
        "coordinates": [
          107.6248232,
          -6.9494075
        ]
      },
      "properties": {
        "id": 11871900167,
        "name": "LPKIA B",
        "shelter": "no",
        "pole": "totem",
        "routes": [
          4649692,
          5517528,
          17771075,
          18766207,
          18768804
        ]
      }
    },
    {
      "type": "Feature",
      "geometry": {
        "type": "Point",
        "coordinates": [
          107.6178786,
          -6.8932886
        ]
      },
      "properties": {
        "id": 11874791387,
        "name": "Unpad Kampus Iwa Koesoemasoemantri",
        "shelter": "no",
        "pole": "totem",
        "routes": [
          4291189,
          4634057
        ]
      }
    },
    {
      "type": "Feature",
      "geometry": {
        "type": "Point",
        "coordinates": [
          107.5971627,
          -6.8960705
        ]
      },
      "properties": {
        "id": 11876087250,
        "name": "Cibarengkok",
        "shelter": "no",
        "pole": "totem",
        "routes": [
          4308299,
          4308300,
          4321908,
          4432470,
          4802258,
          16644123,
          16677558,
          17553836,
          17771220
        ]
      }
    },
    {
      "type": "Feature",
      "geometry": {
        "type": "Point",
        "coordinates": [
          107.617851,
          -6.9194439
        ]
      },
      "properties": {
        "id": 11880588499,
        "name": "Jalan Panaitan",
        "shelter": "no",
        "pole": "totem",
        "routes": [
          4283719,
          4308300,
          4425938,
          4433069,
          4636155,
          19664371
        ]
      }
    },
    {
      "type": "Feature",
      "geometry": {
        "type": "Point",
        "coordinates": [
          107.6325214,
          -6.8983461
        ]
      },
      "properties": {
        "id": 11883306550,
        "name": "BKKBN",
        "shelter": "no",
        "pole": "totem",
        "routes": [
          4291189,
          4422550,
          4423238,
          17564612
        ]
      }
    },
    {
      "type": "Feature",
      "geometry": {
        "type": "Point",
        "coordinates": [
          107.5884158,
          -6.8951325
        ]
      },
      "properties": {
        "id": 11883306553,
        "name": "Griya Pasteur 1",
        "shelter": "no",
        "pole": "totem",
        "routes": [
          4321908,
          4420961,
          4420962,
          17564612,
          17772446,
          18771222
        ]
      }
    },
    {
      "type": "Feature",
      "geometry": {
        "type": "Point",
        "coordinates": [
          107.5786866,
          -6.8813132
        ]
      },
      "properties": {
        "id": 11883306554,
        "name": "Lemahneundeut",
        "shelter": "no",
        "pole": "totem",
        "routes": [
          4421036,
          4650417,
          17564612
        ]
      }
    },
    {
      "type": "Feature",
      "geometry": {
        "type": "Point",
        "coordinates": [
          107.5815337,
          -6.8821948
        ]
      },
      "properties": {
        "id": 11883429122,
        "name": "Setrasari",
        "shelter": "no",
        "pole": "totem",
        "routes": [
          4650417,
          17564831
        ]
      }
    },
    {
      "type": "Feature",
      "geometry": {
        "type": "Point",
        "coordinates": [
          107.676837,
          -6.9383287
        ]
      },
      "properties": {
        "id": 11883812969,
        "name": "Cipamokolan",
        "shelter": "no",
        "pole": "totem",
        "routes": [
          4433069,
          4634057,
          16648201,
          16650577,
          17565369,
          17772429,
          18768805
        ]
      }
    },
    {
      "type": "Feature",
      "geometry": {
        "type": "Point",
        "coordinates": [
          107.6729063,
          -6.9386008
        ]
      },
      "properties": {
        "id": 11883812971,
        "name": "Aria Graha",
        "shelter": "no",
        "pole": "totem",
        "routes": [
          4433069,
          4634057,
          16648201,
          17565369,
          17772429,
          18768805
        ]
      }
    },
    {
      "type": "Feature",
      "geometry": {
        "type": "Point",
        "coordinates": [
          107.6353127,
          -6.947564
        ]
      },
      "properties": {
        "id": 11883812979,
        "name": "SPBU Simpang Buah Batu Soekarno Hatta",
        "shelter": "no",
        "pole": "totem",
        "routes": [
          4308486,
          4433069,
          16646697,
          16648201,
          17565369,
          17772429,
          18768805,
          19664371
        ]
      }
    },
    {
      "type": "Feature",
      "geometry": {
        "type": "Point",
        "coordinates": [
          107.6723164,
          -6.9047492
        ]
      },
      "properties": {
        "id": 12017343266,
        "name": "Komplek Sarimas",
        "shelter": "no",
        "pole": "totem",
        "routes": [
          4422442,
          4422550,
          4644899,
          17771223
        ]
      }
    },
    {
      "type": "Feature",
      "geometry": {
        "type": "Point",
        "coordinates": [
          107.6191679,
          -6.9489281
        ]
      },
      "properties": {
        "id": 12626529701,
        "name": "PT LEN Industri B",
        "shelter": "no",
        "pole": "totem",
        "routes": [
          4649692,
          17771075,
          18766207,
          18768804
        ]
      }
    },
    {
      "type": "Feature",
      "geometry": {
        "type": "Point",
        "coordinates": [
          107.6439103,
          -6.9146677
        ]
      },
      "properties": {
        "id": 12633822766,
        "name": "Seberang Kiara Artha",
        "shelter": "no",
        "pole": "totem",
        "routes": [
          4284600,
          4308485,
          4308486,
          4635390,
          4642502,
          4649692,
          16650514,
          16650576
        ]
      }
    },
    {
      "type": "Feature",
      "geometry": {
        "type": "Point",
        "coordinates": [
          107.5976036,
          -6.9081011
        ]
      },
      "properties": {
        "id": 12806120201,
        "name": "SDN 013 Pajajaran",
        "shelter": "no",
        "pole": "totem",
        "routes": [
          4294473,
          4308299,
          4420962,
          4423238,
          4639769,
          4648025,
          4652511,
          16646484,
          16650512,
          16677558,
          17771220,
          18782467,
          18782469
        ]
      }
    },
    {
      "type": "Feature",
      "geometry": {
        "type": "Point",
        "coordinates": [
          107.6007131,
          -6.9125566
        ]
      },
      "properties": {
        "id": 12806120203,
        "name": "Haji Mesri",
        "shelter": "no",
        "pole": "totem",
        "routes": [
          4294473,
          4294474,
          4308299,
          4420962,
          4423238,
          4433069,
          4639769,
          4649813,
          4650417,
          4652511,
          4802257,
          4816517,
          16646484,
          16650512,
          16677557,
          17556157,
          17772447,
          18782467,
          18782468,
          18782469
        ]
      }
    },
    {
      "type": "Feature",
      "geometry": {
        "type": "Point",
        "coordinates": [
          107.6172832,
          -6.913675
        ]
      },
      "properties": {
        "id": 12806120206,
        "name": "Balai Bahasa Jawa Barat",
        "shelter": "no",
        "pole": "totem",
        "routes": [
          4283719,
          4308300,
          4433069,
          19664371
        ]
      }
    },
    {
      "type": "Feature",
      "geometry": {
        "type": "Point",
        "coordinates": [
          107.6164338,
          -6.9123329
        ]
      },
      "properties": {
        "id": 12806120208,
        "name": "Taman Musik Jalan Sumbawa",
        "shelter": "no",
        "pole": "totem",
        "routes": [
          4283719,
          4433069,
          19664371
        ]
      }
    },
    {
      "type": "Feature",
      "geometry": {
        "type": "Point",
        "coordinates": [
          107.6183241,
          -6.9315741
        ]
      },
      "properties": {
        "id": 12806120219,
        "name": "Banteng Sadakeling",
        "shelter": "no",
        "pole": "totem",
        "routes": [
          3415464,
          4652571,
          16644187,
          17771073
        ]
      }
    },
    {
      "type": "Feature",
      "geometry": {
        "type": "Point",
        "coordinates": [
          107.6102154,
          -6.9156326
        ]
      },
      "properties": {
        "id": 12806120223,
        "name": "SD Negeri Merdeka",
        "shelter": "no",
        "pole": "totem",
        "routes": [
          15555900,
          19664371
        ]
      }
    },
    {
      "type": "Feature",
      "geometry": {
        "type": "Point",
        "coordinates": [
          107.6758571,
          -6.9048163
        ]
      },
      "properties": {
        "id": 12806309249,
        "name": "Seberang Borma Pasirimpun",
        "shelter": "no",
        "pole": "totem",
        "routes": [
          4422442,
          4422550,
          4644899,
          17771223
        ]
      }
    },
    {
      "type": "Feature",
      "geometry": {
        "type": "Point",
        "coordinates": [
          107.620362,
          -6.9316564
        ]
      },
      "properties": {
        "id": 12806537960,
        "name": "GOR Lodaya",
        "shelter": "no",
        "pole": "totem",
        "routes": [
          3415464,
          4652571,
          16644187,
          17771073
        ]
      }
    },
    {
      "type": "Feature",
      "geometry": {
        "type": "Point",
        "coordinates": [
          107.6268278,
          -6.9242838
        ]
      },
      "properties": {
        "id": 12806717339,
        "name": "Aneka Jeans",
        "shelter": "no",
        "pole": "totem",
        "routes": [
          16644187,
          16650513
        ]
      }
    },
    {
      "type": "Feature",
      "geometry": {
        "type": "Point",
        "coordinates": [
          107.6269483,
          -6.9244476
        ]
      },
      "properties": {
        "id": 12806717341,
        "name": "Sumber Rasa",
        "shelter": "no",
        "pole": "totem",
        "routes": [
          16650514
        ]
      }
    },
    {
      "type": "Feature",
      "geometry": {
        "type": "Point",
        "coordinates": [
          107.5996134,
          -6.92649
        ]
      },
      "properties": {
        "id": 12806765748,
        "name": "Simpang Astanaanyar Pasirkoja",
        "shelter": "no",
        "pole": "totem",
        "routes": [
          4294191,
          16644335,
          16646484,
          16677558,
          17771220
        ]
      }
    },
    {
      "type": "Feature",
      "geometry": {
        "type": "Point",
        "coordinates": [
          107.5983281,
          -6.9209381
        ]
      },
      "properties": {
        "id": 12806765751,
        "name": "Cibadak Astanaanyar",
        "shelter": "no",
        "pole": "totem",
        "routes": [
          16646484,
          16677558,
          17771220
        ]
      }
    },
    {
      "type": "Feature",
      "geometry": {
        "type": "Point",
        "coordinates": [
          107.650502,
          -6.9424944
        ]
      },
      "properties": {
        "id": 12806851391,
        "name": "Unibi",
        "shelter": "no",
        "pole": "totem",
        "routes": [
          4284600,
          4642502,
          5517528,
          16634809,
          16650576,
          17771073,
          17771075,
          18768804
        ]
      }
    },
    {
      "type": "Feature",
      "geometry": {
        "type": "Point",
        "coordinates": [
          107.641823,
          -6.9443078
        ]
      },
      "properties": {
        "id": 12806853433,
        "name": "Jalan H. Basuki",
        "shelter": "no",
        "pole": "totem",
        "routes": [
          4432470,
          4634057,
          4648328,
          4649692,
          16650577
        ]
      }
    },
    {
      "type": "Feature",
      "geometry": {
        "type": "Point",
        "coordinates": [
          107.6419391,
          -6.9427684
        ]
      },
      "properties": {
        "id": 12806853437,
        "name": "Borma Kiaracondong",
        "shelter": "no",
        "pole": "totem",
        "routes": [
          4432470,
          4634057,
          4648328,
          4649692,
          16650577
        ]
      }
    },
    {
      "type": "Feature",
      "geometry": {
        "type": "Point",
        "coordinates": [
          107.6421397,
          -6.9399639
        ]
      },
      "properties": {
        "id": 12806853439,
        "name": "Seberang Jalan Sekejati",
        "shelter": "no",
        "pole": "totem",
        "routes": [
          4432470,
          4634057,
          4648328,
          4649692,
          16650577
        ]
      }
    },
    {
      "type": "Feature",
      "geometry": {
        "type": "Point",
        "coordinates": [
          107.6422267,
          -6.9383596
        ]
      },
      "properties": {
        "id": 12806853443,
        "name": "KPP Madya Dua Bandung",
        "shelter": "no",
        "pole": "totem",
        "routes": [
          4432470,
          4634057,
          4635390,
          4648328,
          4649692,
          16650514,
          16650577
        ]
      }
    },
    {
      "type": "Feature",
      "geometry": {
        "type": "Point",
        "coordinates": [
          107.6429612,
          -6.9334238
        ]
      },
      "properties": {
        "id": 12806853445,
        "name": "SDN 38 Kiaracondong",
        "shelter": "no",
        "pole": "totem",
        "routes": [
          4284600,
          4308485,
          4308486,
          4635390,
          4642502,
          16650514,
          16650576
        ]
      }
    },
    {
      "type": "Feature",
      "geometry": {
        "type": "Point",
        "coordinates": [
          107.6444787,
          -6.9274181
        ]
      },
      "properties": {
        "id": 12806853448,
        "name": "Jalan PSM",
        "shelter": "no",
        "pole": "totem",
        "routes": [
          4284600,
          4308485,
          4308486,
          4635390,
          16650514,
          16650576
        ]
      }
    },
    {
      "type": "Feature",
      "geometry": {
        "type": "Point",
        "coordinates": [
          107.6443594,
          -6.9196188
        ]
      },
      "properties": {
        "id": 12806853453,
        "name": "SDN 083 Babakan Surabaya Selatan",
        "shelter": "no",
        "pole": "totem",
        "routes": [
          4284600,
          4308485,
          4308486,
          4635390,
          16650514,
          16650576
        ]
      }
    },
    {
      "type": "Feature",
      "geometry": {
        "type": "Point",
        "coordinates": [
          107.6464815,
          -6.9441132
        ]
      },
      "properties": {
        "id": 12806868638,
        "name": "Disnaker Jabar",
        "shelter": "no",
        "pole": "totem",
        "routes": [
          4432470,
          4433069,
          4634057,
          16648201,
          16650577,
          17565369,
          17772429,
          18768805
        ]
      }
    },
    {
      "type": "Feature",
      "geometry": {
        "type": "Point",
        "coordinates": [
          107.6384357,
          -6.9463564
        ]
      },
      "properties": {
        "id": 12806868671,
        "name": "Sekelimus 1",
        "shelter": "no",
        "pole": "totem",
        "routes": [
          4649692,
          5517528,
          16634809,
          17771073,
          17771075,
          18768804,
          19664372
        ]
      }
    },
    {
      "type": "Feature",
      "geometry": {
        "type": "Point",
        "coordinates": [
          107.6381374,
          -6.9466899
        ]
      },
      "properties": {
        "id": 12806868673,
        "name": "Sekelimus Tengah",
        "shelter": "no",
        "pole": "totem",
        "routes": [
          4308486,
          4433069,
          16646697,
          16648201,
          17565369,
          17772429,
          18768805
        ]
      }
    },
    {
      "type": "Feature",
      "geometry": {
        "type": "Point",
        "coordinates": [
          107.6348776,
          -6.9474617
        ]
      },
      "properties": {
        "id": 12806868675,
        "name": "Simpang Buah Batu Soekarno Hatta 1",
        "shelter": "no",
        "pole": "totem",
        "routes": [
          4649692,
          5517528,
          16634809,
          17771073,
          17771075,
          18768804,
          19664372
        ]
      }
    },
    {
      "type": "Feature",
      "geometry": {
        "type": "Point",
        "coordinates": [
          107.6136896,
          -6.9487604
        ]
      },
      "properties": {
        "id": 12808867753,
        "name": "Mengger Girang",
        "shelter": "no",
        "pole": "totem",
        "routes": [
          4308486,
          17565369,
          17772429,
          18768805
        ]
      }
    },
    {
      "type": "Feature",
      "geometry": {
        "type": "Point",
        "coordinates": [
          107.6050951,
          -6.9481562
        ]
      },
      "properties": {
        "id": 12808867757,
        "name": "Ampera Soekarno Hatta",
        "shelter": "no",
        "pole": "totem",
        "routes": [
          4308486,
          17772429,
          17772430,
          18768805
        ]
      }
    },
    {
      "type": "Feature",
      "geometry": {
        "type": "Point",
        "coordinates": [
          107.6051473,
          -6.9479462
        ]
      },
      "properties": {
        "id": 12808867759,
        "name": "Seberang Ampera Soekarno Hatta",
        "shelter": "no",
        "pole": "totem",
        "routes": [
          4649692,
          17771075,
          17771076,
          18768804
        ]
      }
    },
    {
      "type": "Feature",
      "geometry": {
        "type": "Point",
        "coordinates": [
          107.602818,
          -6.9477541
        ]
      },
      "properties": {
        "id": 12808867761,
        "name": "Inhoftank",
        "shelter": "no",
        "pole": "totem",
        "routes": [
          4649692,
          17771075,
          17771076,
          18768804
        ]
      }
    },
    {
      "type": "Feature",
      "geometry": {
        "type": "Point",
        "coordinates": [
          107.6256333,
          -6.9400956
        ]
      },
      "properties": {
        "id": 12808948212,
        "name": "Seberang Selontongan",
        "shelter": "no",
        "pole": "totem",
        "routes": [
          4652619,
          16646697
        ]
      }
    },
    {
      "type": "Feature",
      "geometry": {
        "type": "Point",
        "coordinates": [
          107.6259615,
          -6.9402261
        ]
      },
      "properties": {
        "id": 12808948213,
        "name": "Selontongan",
        "shelter": "no",
        "pole": "totem",
        "routes": [
          4425956,
          4652571,
          17771073
        ]
      }
    },
    {
      "type": "Feature",
      "geometry": {
        "type": "Point",
        "coordinates": [
          107.6089283,
          -6.9277857
        ]
      },
      "properties": {
        "id": 12808948219,
        "name": "Pasundan",
        "shelter": "no",
        "pole": "totem",
        "routes": [
          3415464,
          4283719,
          4308300,
          4636155
        ]
      }
    },
    {
      "type": "Feature",
      "geometry": {
        "type": "Point",
        "coordinates": [
          107.5940026,
          -6.8664267
        ]
      },
      "properties": {
        "id": 12809046290,
        "name": "Seberang Unpas Setiabudi",
        "shelter": "no",
        "pole": "totem",
        "routes": [
          4636013,
          4637081,
          4642502,
          17553837,
          17556157,
          17771221
        ]
      }
    },
    {
      "type": "Feature",
      "geometry": {
        "type": "Point",
        "coordinates": [
          107.5939775,
          -6.8653047
        ]
      },
      "properties": {
        "id": 12809046292,
        "name": "Gegerkalong Girang",
        "shelter": "no",
        "pole": "totem",
        "routes": [
          4291047,
          4308299,
          4308300,
          4432470,
          17553836,
          17771220
        ]
      }
    },
    {
      "type": "Feature",
      "geometry": {
        "type": "Point",
        "coordinates": [
          107.5974143,
          -6.9033999
        ]
      },
      "properties": {
        "id": 12809082508,
        "name": "BPK Penabur",
        "shelter": "no",
        "pole": "totem",
        "routes": [
          4308299,
          4420962,
          4637686,
          4645553,
          16644123,
          16677558,
          17553836
        ]
      }
    },
    {
      "type": "Feature",
      "geometry": {
        "type": "Point",
        "coordinates": [
          107.5975935,
          -6.9033854
        ]
      },
      "properties": {
        "id": 12809082510,
        "name": "Seberang BPK Penabur",
        "shelter": "no",
        "pole": "totem",
        "routes": [
          4291189,
          4425899,
          4650417,
          4802257,
          16644124,
          16677557,
          17553837
        ]
      }
    },
    {
      "type": "Feature",
      "geometry": {
        "type": "Point",
        "coordinates": [
          107.5956946,
          -6.8740452
        ]
      },
      "properties": {
        "id": 12809082549,
        "name": "SMPN 15 Bandung",
        "shelter": "no",
        "pole": "totem",
        "routes": [
          4291047,
          4308299,
          4308300,
          4432470,
          17553836,
          17771220
        ]
      }
    },
    {
      "type": "Feature",
      "geometry": {
        "type": "Point",
        "coordinates": [
          107.5990538,
          -6.9248345
        ]
      },
      "properties": {
        "id": 12809227878,
        "name": "Jalan Haji Safari",
        "shelter": "no",
        "pole": "totem",
        "routes": [
          4294191,
          16644335,
          16646484,
          16677558,
          17771220
        ]
      }
    },
    {
      "type": "Feature",
      "geometry": {
        "type": "Point",
        "coordinates": [
          107.6089537,
          -6.9111712
        ]
      },
      "properties": {
        "id": 12809274345,
        "name": "Masjid Al-Ukhuwwah",
        "shelter": "no",
        "pole": "totem",
        "routes": [
          4292372,
          4308300,
          4420961,
          4432470,
          4639769,
          4802258,
          17772446,
          18771222
        ]
      }
    },
    {
      "type": "Feature",
      "geometry": {
        "type": "Point",
        "coordinates": [
          107.6079144,
          -6.9089046
        ]
      },
      "properties": {
        "id": 12809274347,
        "name": "Wastukencana Purnawarman",
        "shelter": "no",
        "pole": "totem",
        "routes": [
          4292372,
          4294473,
          4308300,
          4420961,
          4423238,
          4432470,
          4639769,
          4802258,
          17772446,
          18771222
        ]
      }
    },
    {
      "type": "Feature",
      "geometry": {
        "type": "Point",
        "coordinates": [
          107.5669131,
          -6.889237
        ]
      },
      "properties": {
        "id": 12809283840,
        "name": "Seberang Gateway Pasteur",
        "shelter": "no",
        "pole": "totem",
        "routes": [
          4649813,
          4649915,
          17772447
        ]
      }
    },
    {
      "type": "Feature",
      "geometry": {
        "type": "Point",
        "coordinates": [
          107.5721443,
          -6.8909024
        ]
      },
      "properties": {
        "id": 12809283843,
        "name": "Borma Dakota",
        "shelter": "no",
        "pole": "totem",
        "routes": [
          4321908,
          4420961,
          17772446
        ]
      }
    },
    {
      "type": "Feature",
      "geometry": {
        "type": "Point",
        "coordinates": [
          107.6177296,
          -6.9131504
        ]
      },
      "properties": {
        "id": 12809507133,
        "name": "Kantor Kecamatan Sumurbandung",
        "shelter": "no",
        "pole": "totem",
        "routes": [
          4308300,
          4425938,
          4636155
        ]
      }
    },
    {
      "type": "Feature",
      "geometry": {
        "type": "Point",
        "coordinates": [
          107.6195685,
          -6.9090628
        ]
      },
      "properties": {
        "id": 12809507138,
        "name": "Graha Manggala Siliwangi",
        "shelter": "no",
        "pole": "totem",
        "routes": [
          4635842
        ]
      }
    },
    {
      "type": "Feature",
      "geometry": {
        "type": "Point",
        "coordinates": [
          107.6266034,
          -6.9105382
        ]
      },
      "properties": {
        "id": 12809507151,
        "name": "Taman Pramuka",
        "shelter": "no",
        "pole": "totem",
        "routes": [
          4284600
        ]
      }
    },
    {
      "type": "Feature",
      "geometry": {
        "type": "Point",
        "coordinates": [
          107.6324781,
          -6.9102722
        ]
      },
      "properties": {
        "id": 12811695426,
        "name": "Supratman Cikaso",
        "shelter": "no",
        "pole": "totem",
        "routes": [
          4308485,
          4635390,
          4642502
        ]
      }
    },
    {
      "type": "Feature",
      "geometry": {
        "type": "Point",
        "coordinates": [
          107.6127635,
          -6.8857042
        ]
      },
      "properties": {
        "id": 12813270568,
        "name": "Sumur Bandung",
        "shelter": "no",
        "pole": "totem",
        "routes": [
          4291189,
          4294473,
          4294474,
          4637081
        ]
      }
    },
    {
      "type": "Feature",
      "geometry": {
        "type": "Point",
        "coordinates": [
          107.6326457,
          -6.9259247
        ]
      },
      "properties": {
        "id": 12813438857,
        "name": "Asrama Pussenkav",
        "shelter": "no",
        "pole": "totem",
        "routes": [
          16650514
        ]
      }
    },
    {
      "type": "Feature",
      "geometry": {
        "type": "Point",
        "coordinates": [
          107.6234856,
          -6.899143
        ]
      },
      "properties": {
        "id": 12814453795,
        "name": "Jalan Gagak",
        "shelter": "no",
        "pole": "totem",
        "routes": [
          4637686,
          4642924,
          4648025
        ]
      }
    },
    {
      "type": "Feature",
      "geometry": {
        "type": "Point",
        "coordinates": [
          107.6312146,
          -6.8987917
        ]
      },
      "properties": {
        "id": 12814754606,
        "name": "Seberang Imigrasi Bandung",
        "shelter": "no",
        "pole": "totem",
        "routes": [
          4637686,
          4642924,
          4648025
        ]
      }
    },
    {
      "type": "Feature",
      "geometry": {
        "type": "Point",
        "coordinates": [
          107.6318144,
          -6.8985429
        ]
      },
      "properties": {
        "id": 12814754608,
        "name": "Simpang Jalaprang",
        "shelter": "no",
        "pole": "totem",
        "routes": [
          4291189,
          4422550,
          4423238
        ]
      }
    },
    {
      "type": "Feature",
      "geometry": {
        "type": "Point",
        "coordinates": [
          107.6360403,
          -6.8982702
        ]
      },
      "properties": {
        "id": 12814754610,
        "name": "SDN 151 Sukasenang",
        "shelter": "no",
        "pole": "totem",
        "routes": [
          4291047,
          4291189,
          4635842
        ]
      }
    },
    {
      "type": "Feature",
      "geometry": {
        "type": "Point",
        "coordinates": [
          107.6416785,
          -6.899604
        ]
      },
      "properties": {
        "id": 12814754612,
        "name": "Bekamin",
        "shelter": "no",
        "pole": "totem",
        "routes": [
          4291047,
          4291189,
          4635842
        ]
      }
    },
    {
      "type": "Feature",
      "geometry": {
        "type": "Point",
        "coordinates": [
          107.6446584,
          -6.9002214
        ]
      },
      "properties": {
        "id": 12814754614,
        "name": "Sukapada 2",
        "shelter": "no",
        "pole": "totem",
        "routes": [
          4291047,
          4291189,
          4422550,
          4635390
        ]
      }
    },
    {
      "type": "Feature",
      "geometry": {
        "type": "Point",
        "coordinates": [
          107.6843493,
          -6.9091197
        ]
      },
      "properties": {
        "id": 12814754621,
        "name": "Silver Kris",
        "shelter": "no",
        "pole": "totem",
        "routes": [
          4422442,
          19452155
        ]
      }
    },
    {
      "type": "Feature",
      "geometry": {
        "type": "Point",
        "coordinates": [
          107.6841066,
          -6.9099811
        ]
      },
      "properties": {
        "id": 12814754623,
        "name": "Yuntex Raya",
        "shelter": "no",
        "pole": "totem",
        "routes": [
          16644061,
          19452156
        ]
      }
    },
    {
      "type": "Feature",
      "geometry": {
        "type": "Point",
        "coordinates": [
          107.6836153,
          -6.9238911
        ]
      },
      "properties": {
        "id": 12814754634,
        "name": "KUA Arcamanik",
        "shelter": "no",
        "pole": "totem",
        "routes": [
          19452155
        ]
      }
    },
    {
      "type": "Feature",
      "geometry": {
        "type": "Point",
        "coordinates": [
          107.684211,
          -6.9206572
        ]
      },
      "properties": {
        "id": 12814754636,
        "name": "SMK YPF",
        "shelter": "no",
        "pole": "totem",
        "routes": [
          4422442,
          19452155
        ]
      }
    },
    {
      "type": "Feature",
      "geometry": {
        "type": "Point",
        "coordinates": [
          107.6839756,
          -6.922572
        ]
      },
      "properties": {
        "id": 12814754638,
        "name": "K.H. Djunaedi",
        "shelter": "no",
        "pole": "totem",
        "routes": [
          16644061,
          19452156
        ]
      }
    },
    {
      "type": "Feature",
      "geometry": {
        "type": "Point",
        "coordinates": [
          107.6171525,
          -6.8950588
        ]
      },
      "properties": {
        "id": 12816121753,
        "name": "Simpang Dipatiukur Hasanudin",
        "shelter": "no",
        "pole": "totem",
        "routes": [
          4291189,
          4634057
        ]
      }
    },
    {
      "type": "Feature",
      "geometry": {
        "type": "Point",
        "coordinates": [
          107.6172906,
          -6.8950518
        ]
      },
      "properties": {
        "id": 12816121754,
        "name": "Magister Manajemen UNPAD",
        "shelter": "no",
        "pole": "totem",
        "routes": [
          4284600,
          4637686
        ]
      }
    },
    {
      "type": "Feature",
      "geometry": {
        "type": "Point",
        "coordinates": [
          107.6199112,
          -6.8725613
        ]
      },
      "properties": {
        "id": 12816172251,
        "name": "Seberang Poltekesos",
        "shelter": "no",
        "pole": "totem",
        "routes": [
          4284600,
          4643109
        ]
      }
    },
    {
      "type": "Feature",
      "geometry": {
        "type": "Point",
        "coordinates": [
          107.6160069,
          -6.9207627
        ]
      },
      "properties": {
        "id": 12823636733,
        "name": "Rumah Sakit Murni Teguh Naripan",
        "shelter": "no",
        "pole": "totem",
        "routes": [
          16634809,
          17771219,
          19664372
        ]
      }
    },
    {
      "type": "Feature",
      "geometry": {
        "type": "Point",
        "coordinates": [
          107.6159803,
          -6.9301952
        ]
      },
      "properties": {
        "id": 12825997236,
        "name": "Melong Karapitan",
        "shelter": "no",
        "pole": "totem",
        "routes": [
          4283719,
          4308300,
          4636155,
          4652619
        ]
      }
    },
    {
      "type": "Feature",
      "geometry": {
        "type": "Point",
        "coordinates": [
          107.6165089,
          -6.9282793
        ]
      },
      "properties": {
        "id": 12825997238,
        "name": "Karapitan Cikawao",
        "shelter": "no",
        "pole": "totem",
        "routes": [
          4283719,
          4308300,
          4636155
        ]
      }
    },
    {
      "type": "Feature",
      "geometry": {
        "type": "Point",
        "coordinates": [
          107.6172397,
          -6.9250827
        ]
      },
      "properties": {
        "id": 12825997240,
        "name": "Karapitan Paledang",
        "shelter": "no",
        "pole": "totem",
        "routes": [
          4283719,
          4308300,
          4636155
        ]
      }
    },
    {
      "type": "Feature",
      "geometry": {
        "type": "Point",
        "coordinates": [
          107.6168104,
          -6.9270695
        ]
      },
      "properties": {
        "id": 12825997242,
        "name": "Karapitan Emung",
        "shelter": "no",
        "pole": "totem",
        "routes": [
          4283719,
          4308300,
          4636155
        ]
      }
    },
    {
      "type": "Feature",
      "geometry": {
        "type": "Point",
        "coordinates": [
          107.6100259,
          -6.9139939
        ]
      },
      "properties": {
        "id": 12825997247,
        "name": "Taman Vanda",
        "shelter": "no",
        "pole": "totem",
        "routes": [
          4308300,
          4432470,
          4433069,
          4639769,
          4642211,
          18771223
        ]
      }
    },
    {
      "type": "Feature",
      "geometry": {
        "type": "Point",
        "coordinates": [
          107.5972499,
          -6.8978443
        ]
      },
      "properties": {
        "id": 12825997249,
        "name": "SPBU Paskal",
        "shelter": "no",
        "pole": "totem",
        "routes": [
          4308299,
          4308300,
          4432470,
          4637686,
          4645553,
          4652511,
          4802258,
          16644123,
          16677558,
          17553836,
          17771220
        ]
      }
    },
    {
      "type": "Feature",
      "geometry": {
        "type": "Point",
        "coordinates": [
          107.5960099,
          -6.8756183
        ]
      },
      "properties": {
        "id": 12825997251,
        "name": "Gereja Santo Laurentius",
        "shelter": "no",
        "pole": "totem",
        "routes": [
          4291047,
          4308300,
          4432470,
          17553836,
          17771220
        ]
      }
    },
    {
      "type": "Feature",
      "geometry": {
        "type": "Point",
        "coordinates": [
          107.6283345,
          -6.9088504
        ]
      },
      "properties": {
        "id": 12880854212,
        "name": "Jalan Salam",
        "shelter": "no",
        "pole": "totem",
        "routes": [
          4432470,
          4635842
        ]
      }
    },
    {
      "type": "Feature",
      "geometry": {
        "type": "Point",
        "coordinates": [
          107.6282322,
          -6.9088189
        ]
      },
      "properties": {
        "id": 12880854213,
        "name": "Jalan Suren",
        "shelter": "no",
        "pole": "totem",
        "routes": [
          4636155,
          4642502
        ]
      }
    },
    {
      "type": "Feature",
      "geometry": {
        "type": "Point",
        "coordinates": [
          107.6296222,
          -6.9063094
        ]
      },
      "properties": {
        "id": 12887162309,
        "name": "Seberang Telkom Supratman",
        "shelter": "no",
        "pole": "totem",
        "routes": [
          4291047,
          4642211,
          4648328
        ]
      }
    },
    {
      "type": "Feature",
      "geometry": {
        "type": "Point",
        "coordinates": [
          107.6368253,
          -6.9279941
        ]
      },
      "properties": {
        "id": 12887182236,
        "name": "Trans Studio Mall",
        "shelter": "no",
        "pole": "totem",
        "routes": [
          3415464,
          16650513
        ]
      }
    },
    {
      "type": "Feature",
      "geometry": {
        "type": "Point",
        "coordinates": [
          107.6183806,
          -6.9061442
        ]
      },
      "properties": {
        "id": 12947323124,
        "name": "Sekolah Taruna Bakti",
        "shelter": "no",
        "pole": "totem",
        "routes": [
          4432470,
          15555900
        ]
      }
    },
    {
      "type": "Feature",
      "geometry": {
        "type": "Point",
        "coordinates": [
          107.625702,
          -6.9098034
        ]
      },
      "properties": {
        "id": 12947326488,
        "name": "Riau Aceh",
        "shelter": "no",
        "pole": "totem",
        "routes": [
          4422442,
          4432470,
          15555900
        ]
      }
    },
    {
      "type": "Feature",
      "geometry": {
        "type": "Point",
        "coordinates": [
          107.6174072,
          -6.9061
        ]
      },
      "properties": {
        "id": 12947335857,
        "name": "Heritage",
        "shelter": "no",
        "pole": "totem",
        "routes": [
          4642502
        ]
      }
    },
    {
      "type": "Feature",
      "geometry": {
        "type": "Point",
        "coordinates": [
          107.6250595,
          -6.9089973
        ]
      },
      "properties": {
        "id": 12947335922,
        "name": "Riau Serayu",
        "shelter": "no",
        "pole": "totem",
        "routes": [
          4284600,
          4642502
        ]
      }
    },
    {
      "type": "Feature",
      "geometry": {
        "type": "Point",
        "coordinates": [
          107.6256125,
          -6.9103166
        ]
      },
      "properties": {
        "id": 12962149420,
        "name": "Aceh Taman Pramuka",
        "shelter": "no",
        "pole": "totem",
        "routes": [
          4635842
        ]
      }
    },
    {
      "type": "Feature",
      "geometry": {
        "type": "Point",
        "coordinates": [
          107.6327112,
          -6.9341861
        ]
      },
      "properties": {
        "id": 12981898045,
        "name": "Riau Martanegara",
        "shelter": "no",
        "pole": "totem",
        "routes": [
          3415464
        ]
      }
    },
    {
      "type": "Feature",
      "geometry": {
        "type": "Point",
        "coordinates": [
          107.6238453,
          -6.9287798
        ]
      },
      "properties": {
        "id": 12981907796,
        "name": "Simpang Talaga Bodas - Patuha",
        "shelter": "no",
        "pole": "totem",
        "routes": [
          16634809,
          19664372
        ]
      }
    },
    {
      "type": "Feature",
      "geometry": {
        "type": "Point",
        "coordinates": [
          107.6248368,
          -6.9291283
        ]
      },
      "properties": {
        "id": 12981911993,
        "name": "Simpang Talaga Bodas - Terusan Galunggung",
        "shelter": "no",
        "pole": "totem",
        "routes": [
          4433069,
          19664371
        ]
      }
    },
    {
      "type": "Feature",
      "geometry": {
        "type": "Point",
        "coordinates": [
          107.6347708,
          -6.9321591
        ]
      },
      "properties": {
        "id": 12981921808,
        "name": "Seberang STIE Pasundan",
        "shelter": "no",
        "pole": "totem",
        "routes": [
          3415464
        ]
      }
    },
    {
      "type": "Feature",
      "geometry": {
        "type": "Point",
        "coordinates": [
          107.6248834,
          -6.9017801
        ]
      },
      "properties": {
        "id": 12984567984,
        "name": "Tugu PKK Citarum",
        "shelter": "no",
        "pole": "totem",
        "routes": [
          4284600,
          4642211
        ]
      }
    },
    {
      "type": "Feature",
      "geometry": {
        "type": "Point",
        "coordinates": [
          107.6225787,
          -6.904583
        ]
      },
      "properties": {
        "id": 12984646649,
        "name": "Seberang SMAN 20 Bandung",
        "shelter": "no",
        "pole": "totem",
        "routes": [
          4284600,
          4642211
        ]
      }
    },
    {
      "type": "Feature",
      "geometry": {
        "type": "Point",
        "coordinates": [
          107.6106242,
          -6.8996323
        ]
      },
      "properties": {
        "id": 12986798341,
        "name": "Sulanjana Rangga Malela",
        "shelter": "no",
        "pole": "totem",
        "routes": [
          4637081
        ]
      }
    },
    {
      "type": "Feature",
      "geometry": {
        "type": "Point",
        "coordinates": [
          107.6266528,
          -6.9411852
        ]
      },
      "properties": {
        "id": 12986824556,
        "name": "Seberang Griya Buah Batu",
        "shelter": "no",
        "pole": "totem",
        "routes": [
          4652619,
          16646697
        ]
      }
    },
    {
      "type": "Feature",
      "geometry": {
        "type": "Point",
        "coordinates": [
          107.6268846,
          -6.9412131
        ]
      },
      "properties": {
        "id": 12986852690,
        "name": "Griya Buah Batu",
        "shelter": "no",
        "pole": "totem",
        "routes": [
          4425956,
          4652571,
          17771073
        ]
      }
    },
    {
      "type": "Feature",
      "geometry": {
        "type": "Point",
        "coordinates": [
          107.59155,
          -6.8969843
        ]
      },
      "properties": {
        "id": 13022318813,
        "name": "BRI Sukamulya",
        "shelter": "no",
        "pole": "totem",
        "routes": [
          4321908,
          4420961,
          4420962,
          17772446,
          18771222
        ]
      }
    },
    {
      "type": "Feature",
      "geometry": {
        "type": "Point",
        "coordinates": [
          107.6268675,
          -6.9493585
        ]
      },
      "properties": {
        "id": 13041830325,
        "name": "Timur Simpang Batununggal",
        "shelter": "no",
        "pole": "totem",
        "routes": [
          4649692,
          5517528,
          17771075,
          18768804
        ]
      }
    },
    {
      "type": "Feature",
      "geometry": {
        "type": "Point",
        "coordinates": [
          107.6299527,
          -6.949166
        ]
      },
      "properties": {
        "id": 13041832112,
        "name": "STFI",
        "shelter": "no",
        "pole": "totem",
        "routes": [
          4308486,
          16648201,
          17565369,
          17772429,
          18768805
        ]
      }
    },
    {
      "type": "Feature",
      "geometry": {
        "type": "Point",
        "coordinates": [
          107.5934263,
          -6.9164034
        ]
      },
      "properties": {
        "id": 13055672388,
        "name": "Kebon Jati Kelenteng",
        "shelter": "no",
        "pole": "totem",
        "routes": [
          4648025,
          16644187,
          16648408,
          17329177
        ]
      }
    },
    {
      "type": "Feature",
      "geometry": {
        "type": "Point",
        "coordinates": [
          107.6010492,
          -6.9161094
        ]
      },
      "properties": {
        "id": 13059006283,
        "name": "Rumah Sakit Santosa",
        "shelter": "no",
        "pole": "totem",
        "routes": [
          4294474,
          4433069,
          4649813,
          4650417,
          4802257,
          4816517,
          15555900,
          16646484,
          16648408,
          16677557,
          17329177,
          17556157,
          17772447,
          18782468
        ]
      }
    },
    {
      "type": "Feature",
      "geometry": {
        "type": "Point",
        "coordinates": [
          107.6021723,
          -6.937323
        ]
      },
      "properties": {
        "id": 13065296107,
        "name": "P Hostel",
        "shelter": "no",
        "pole": "totem",
        "routes": [
          5517546,
          15555901,
          16644335,
          16646697,
          17771221,
          17771223,
          17834085,
          17834106,
          17834107
        ]
      }
    },
    {
      "type": "Feature",
      "geometry": {
        "type": "Point",
        "coordinates": [
          107.6245224,
          -6.8992927
        ]
      },
      "properties": {
        "id": 13070232754,
        "name": "Jalan Melania",
        "shelter": "no",
        "pole": "totem",
        "routes": [
          4291189,
          4422550,
          4423238
        ]
      }
    },
    {
      "type": "Feature",
      "geometry": {
        "type": "Point",
        "coordinates": [
          107.6436764,
          -6.9148793
        ]
      },
      "properties": {
        "id": 13083709836,
        "name": "Simpang Flyover Antapani",
        "shelter": "no",
        "pole": "totem",
        "routes": [
          3415464,
          4432470,
          4634057,
          4648328,
          16650513,
          16650577
        ]
      }
    },
    {
      "type": "Feature",
      "geometry": {
        "type": "Point",
        "coordinates": [
          107.6415111,
          -6.9140697
        ]
      },
      "properties": {
        "id": 13083728876,
        "name": "Gerbang Utara Kiara Artha Park",
        "shelter": "no",
        "pole": "totem",
        "routes": [
          3415464,
          4422442,
          4432470,
          4634057,
          4639769,
          4648328,
          15520324,
          15555900,
          15555901,
          16650513,
          16650577,
          17771223
        ]
      }
    },
    {
      "type": "Feature",
      "geometry": {
        "type": "Point",
        "coordinates": [
          107.6368217,
          -6.914655
        ]
      },
      "properties": {
        "id": 13083728878,
        "name": "Kota Kembang Permai",
        "shelter": "no",
        "pole": "totem",
        "routes": [
          3415464,
          4422442,
          4432470,
          4634057,
          4639769,
          4648328,
          15520324,
          15555900,
          15555901,
          16650513,
          16650577,
          17771223
        ]
      }
    },
    {
      "type": "Feature",
      "geometry": {
        "type": "Point",
        "coordinates": [
          107.6216927,
          -6.920233
        ]
      },
      "properties": {
        "id": 13083774449,
        "name": "Pasar Kosambi Jalan Baranang Siang",
        "shelter": "no",
        "pole": "totem",
        "routes": [
          4433069,
          15520324,
          17771223,
          19664371
        ]
      }
    },
    {
      "type": "Feature",
      "geometry": {
        "type": "Point",
        "coordinates": [
          107.6036042,
          -6.9292414
        ]
      },
      "properties": {
        "id": 13086077193,
        "name": "Gang Iming",
        "shelter": "no",
        "pole": "totem",
        "routes": [
          4294191,
          4294474,
          4647871,
          5517528,
          5517546,
          5738885,
          16648408,
          16677557,
          16677558,
          17771221,
          17771223,
          17834107,
          18799378
        ]
      }
    },
    {
      "type": "Feature",
      "geometry": {
        "type": "Point",
        "coordinates": [
          107.6080109,
          -6.8897572
        ]
      },
      "properties": {
        "id": 13094127963,
        "name": "Bandung Zoo",
        "shelter": "no",
        "pole": "totem",
        "routes": [
          4291047,
          16646484
        ]
      }
    },
    {
      "type": "Feature",
      "geometry": {
        "type": "Point",
        "coordinates": [
          107.6433618,
          -6.9092061
        ]
      },
      "properties": {
        "id": 13094416575,
        "name": "Pos Polisi Cicadas",
        "shelter": "no",
        "pole": "totem",
        "routes": [
          4422442,
          15520324,
          17771223
        ]
      }
    },
    {
      "type": "Feature",
      "geometry": {
        "type": "Point",
        "coordinates": [
          107.647561,
          -6.9063598
        ]
      },
      "properties": {
        "id": 13094416580,
        "name": "Babakan Tamim",
        "shelter": "no",
        "pole": "totem",
        "routes": [
          16644061,
          17329177,
          17771219
        ]
      }
    },
    {
      "type": "Feature",
      "geometry": {
        "type": "Point",
        "coordinates": [
          107.6487318,
          -6.9057557
        ]
      },
      "properties": {
        "id": 13094416582,
        "name": "Cimuncang",
        "shelter": "no",
        "pole": "totem",
        "routes": [
          16644061,
          17771219
        ]
      }
    },
    {
      "type": "Feature",
      "geometry": {
        "type": "Point",
        "coordinates": [
          107.6536855,
          -6.9031087
        ]
      },
      "properties": {
        "id": 13094416584,
        "name": "Polsek Cibeunying Kidul",
        "shelter": "no",
        "pole": "totem",
        "routes": [
          16644061,
          17329177,
          17771219
        ]
      }
    },
    {
      "type": "Feature",
      "geometry": {
        "type": "Point",
        "coordinates": [
          107.5987229,
          -6.8811684
        ]
      },
      "properties": {
        "id": 13097616731,
        "name": "Taman Gaya Karangsari",
        "shelter": "no",
        "pole": "totem",
        "routes": [
          4637686,
          4802256,
          4802258,
          16644124,
          16677557
        ]
      }
    },
    {
      "type": "Feature",
      "geometry": {
        "type": "Point",
        "coordinates": [
          107.5881189,
          -6.894602
        ]
      },
      "properties": {
        "id": 13098247694,
        "name": "Sukamulya",
        "shelter": "no",
        "pole": "totem",
        "routes": []
      }
    },
    {
      "type": "Feature",
      "geometry": {
        "type": "Point",
        "coordinates": [
          107.6333102,
          -6.9120065
        ]
      },
      "properties": {
        "id": 13114541495,
        "name": "Seberang SMP Negeri 22 Bandung",
        "shelter": "no",
        "pole": "totem",
        "routes": []
      }
    },
    {
      "type": "Feature",
      "geometry": {
        "type": "Point",
        "coordinates": [
          107.6335305,
          -6.9139834
        ]
      },
      "properties": {
        "id": 13114546721,
        "name": "Seberang Jalan Bengawan",
        "shelter": "no",
        "pole": "totem",
        "routes": [
          15520324,
          17771223
        ]
      }
    },
    {
      "type": "Feature",
      "geometry": {
        "type": "Point",
        "coordinates": [
          107.6328775,
          -6.9113345
        ]
      },
      "properties": {
        "id": 13114557103,
        "name": "Sancta Angela Supratman",
        "shelter": "no",
        "pole": "totem",
        "routes": [
          3415464,
          4432470,
          4648328
        ]
      }
    },
    {
      "type": "Feature",
      "geometry": {
        "type": "Point",
        "coordinates": [
          107.6391816,
          -6.9143665
        ]
      },
      "properties": {
        "id": 13114579804,
        "name": "Kantor Pos Kebonwaru",
        "shelter": "no",
        "pole": "totem",
        "routes": [
          3415464,
          4422442,
          4432470,
          4634057,
          4639769,
          4648328,
          15520324,
          15555900,
          15555901,
          16650513,
          16650577,
          17771223
        ]
      }
    },
    {
      "type": "Feature",
      "geometry": {
        "type": "Point",
        "coordinates": [
          107.6644191,
          -6.9038407
        ]
      },
      "properties": {
        "id": 13118722335,
        "name": "Seberang Kantor Kecamatan Antapani",
        "shelter": "no",
        "pole": "totem",
        "routes": [
          4422549,
          4642924,
          17771219
        ]
      }
    },
    {
      "type": "Feature",
      "geometry": {
        "type": "Point",
        "coordinates": [
          107.6051319,
          -6.9147208
        ]
      },
      "properties": {
        "id": 13118762476,
        "name": "Masjid Saifuddaulah",
        "shelter": "no",
        "pole": "totem",
        "routes": [
          4292372,
          4308299,
          4420961,
          4420962,
          4425938,
          4652511,
          4802258,
          16646484,
          16650512,
          17329177,
          17350725,
          17772446,
          18771222,
          18782467,
          18782469
        ]
      }
    },
    {
      "type": "Feature",
      "geometry": {
        "type": "Point",
        "coordinates": [
          107.6195653,
          -6.933728
        ]
      },
      "properties": {
        "id": 13119147216,
        "name": "Jalan Beunteur",
        "shelter": "no",
        "pole": "totem",
        "routes": [
          4635390,
          4652619,
          16644335
        ]
      }
    },
    {
      "type": "Feature",
      "geometry": {
        "type": "Point",
        "coordinates": [
          107.6141487,
          -6.9220479
        ]
      },
      "properties": {
        "id": 13122143965,
        "name": "Kasim",
        "shelter": "no",
        "pole": "totem",
        "routes": [
          15520324,
          17771223
        ]
      }
    },
    {
      "type": "Feature",
      "geometry": {
        "type": "Point",
        "coordinates": [
          107.6284862,
          -6.938528
        ]
      },
      "properties": {
        "id": 13178943014,
        "name": "Kantor PLN Jalan Karawitan",
        "shelter": "no",
        "pole": "totem",
        "routes": [
          4433069,
          19664371
        ]
      }
    },
    {
      "type": "Feature",
      "geometry": {
        "type": "Point",
        "coordinates": [
          107.6233363,
          -6.9273912
        ]
      },
      "properties": {
        "id": 13178943026,
        "name": "Seberang SD Al-Azhar 36 Bandung",
        "shelter": "no",
        "pole": "totem",
        "routes": [
          4433069,
          16644187,
          19664371
        ]
      }
    },
    {
      "type": "Feature",
      "geometry": {
        "type": "Point",
        "coordinates": [
          107.6234132,
          -6.925787
        ]
      },
      "properties": {
        "id": 13178943028,
        "name": "Taman Pers Malabar 1",
        "shelter": "no",
        "pole": "totem",
        "routes": [
          4433069,
          16644187,
          19664371
        ]
      }
    },
    {
      "type": "Feature",
      "geometry": {
        "type": "Point",
        "coordinates": [
          107.6123659,
          -6.9044807
        ]
      },
      "properties": {
        "id": 13178943063,
        "name": "Jalan Sultan Agung",
        "shelter": "no",
        "pole": "totem",
        "routes": [
          19664371
        ]
      }
    },
    {
      "type": "Feature",
      "geometry": {
        "type": "Point",
        "coordinates": [
          107.6116738,
          -6.9145594
        ]
      },
      "properties": {
        "id": 13178943082,
        "name": "Polrestabes Bandung 2",
        "shelter": "no",
        "pole": "totem",
        "routes": [
          19664372
        ]
      }
    },
    {
      "type": "Feature",
      "geometry": {
        "type": "Point",
        "coordinates": [
          107.6124932,
          -6.9113315
        ]
      },
      "properties": {
        "id": 13178943086,
        "name": "Paguyuban Pasundan",
        "shelter": "no",
        "pole": "totem",
        "routes": [
          4283719,
          4433069,
          4639769,
          4642211,
          19664372
        ]
      }
    },
    {
      "type": "Feature",
      "geometry": {
        "type": "Point",
        "coordinates": [
          107.6134452,
          -6.9084121
        ]
      },
      "properties": {
        "id": 13178943088,
        "name": "Dinas Arsip dan Perpustakaan Kota Bandung",
        "shelter": "no",
        "pole": "totem",
        "routes": [
          4283719,
          19664372
        ]
      }
    },
    {
      "type": "Feature",
      "geometry": {
        "type": "Point",
        "coordinates": [
          107.6265121,
          -6.9327915
        ]
      },
      "properties": {
        "id": 13179094009,
        "name": "Seberang Dinas Ketenagakerjaan Kota Bandung",
        "shelter": "no",
        "pole": "totem",
        "routes": [
          3415464,
          16634809,
          19664372
        ]
      }
    },
    {
      "type": "Feature",
      "geometry": {
        "type": "Point",
        "coordinates": [
          107.6325659,
          -6.9346225
        ]
      },
      "properties": {
        "id": 13179094013,
        "name": "Simpang Reog - Martanegara",
        "shelter": "no",
        "pole": "totem",
        "routes": [
          16634809,
          19664372
        ]
      }
    },
    {
      "type": "Feature",
      "geometry": {
        "type": "Point",
        "coordinates": [
          107.6128122,
          -6.9201897
        ]
      },
      "properties": {
        "id": 13194799239,
        "name": "Simpang Naripan Tamblong",
        "shelter": "no",
        "pole": "totem",
        "routes": [
          16634809,
          17771219
        ]
      }
    },
    {
      "type": "Feature",
      "geometry": {
        "type": "Point",
        "coordinates": [
          107.5876023,
          -6.9293945
        ]
      },
      "properties": {
        "id": 13198014307,
        "name": "Frontone Hotel",
        "shelter": "no",
        "pole": "totem",
        "routes": []
      }
    },
    {
      "type": "Feature",
      "geometry": {
        "type": "Point",
        "coordinates": [
          107.6402292,
          -6.9537874
        ]
      },
      "properties": {
        "id": 13236521197,
        "name": "Tugu Pasar Kordon",
        "shelter": "no",
        "pole": "totem",
        "routes": [
          4648328,
          16646697
        ]
      }
    }
  ]
}