{
  "type": "FeatureCollection",
  "features": [
    {
      "type": "Feature",
      "geometry": {
        "type": "Point",
        "coordinates": [
          107.607149,
          -6.9212854
        ]
      },
      "properties": {
        "id": 1013421519,
        "name": "Alun-alun Bandung",
        "shelter": "yes",
        "pole": "totem",
        "routes": [
          4652511,
          15520324,
          15555900,
          16634809,
          16650512,
          17771073,
          17771219,
          17771223,
          18766205,
          18766206,
          18766207,
          18766208,
          18771222,
          18771223
        ]
      }
    },
    {
      "type": "Feature",
      "geometry": {
        "type": "Point",
        "coordinates": [
          107.6306984,
          -6.9079995
        ]
      },
      "properties": {
        "id": 1666714160,
        "name": "Pussenif",
        "shelter": "yes",
        "pole": "totem",
        "routes": [
          3415464,
          4432470,
          4648328
        ]
      }
    },
    {
      "type": "Feature",
      "geometry": {
        "type": "Point",
        "coordinates": [
          107.6058341,
          -6.9276299
        ]
      },
      "properties": {
        "id": 3374033510,
        "name": "Terminal Abdul Muis/Kebon Kalapa",
        "shelter": "yes",
        "pole": "totem",
        "routes": [
          3415464,
          4283719,
          4294191,
          4308300,
          4631469,
          4635390,
          4635842,
          4636013,
          4636155,
          4643109,
          4647871,
          4652460,
          4652511,
          4652571,
          4652619,
          5517546,
          5738876,
          5738885,
          16648408,
          16650512,
          16650513,
          16650514,
          16677494,
          16677557,
          16677558
        ]
      }
    },
    {
      "type": "Feature",
      "geometry": {
        "type": "Point",
        "coordinates": [
          107.6582421,
          -6.9400293
        ]
      },
      "properties": {
        "id": 3375689665,
        "name": "Jasa Raharja Jabar",
        "shelter": "yes",
        "pole": "totem",
        "routes": [
          4284600,
          4642502,
          5517528,
          16634809,
          16650576,
          17771073,
          17771075,
          18768804
        ]
      }
    },
    {
      "type": "Feature",
      "geometry": {
        "type": "Point",
        "coordinates": [
          107.6072906,
          -6.9048877
        ]
      },
      "properties": {
        "id": 3376669074,
        "name": "Pasar Kembang Wastukencana",
        "shelter": "yes",
        "pole": "totem",
        "routes": [
          4294474,
          4636013,
          4639770,
          4642502,
          4646137,
          4648025,
          4649813,
          4652460,
          16646484,
          17556157,
          17771221,
          17772447,
          18771223
        ]
      }
    },
    {
      "type": "Feature",
      "geometry": {
        "type": "Point",
        "coordinates": [
          107.596174,
          -6.8780721
        ]
      },
      "properties": {
        "id": 3376673099,
        "name": "Sukawangi",
        "shelter": "yes",
        "pole": "totem",
        "routes": [
          4291047,
          4308299,
          4308300,
          4432470,
          17553836,
          17771220
        ]
      }
    },
    {
      "type": "Feature",
      "geometry": {
        "type": "Point",
        "coordinates": [
          107.5934452,
          -6.946792
        ]
      },
      "properties": {
        "id": 3384018115,
        "name": "Leuwipanjang Soekarno Hatta",
        "shelter": "yes",
        "pole": "totem",
        "routes": [
          4308486,
          4649692,
          4807425,
          4817613,
          4817618,
          15555901,
          17771075,
          17771076,
          17771221,
          17771223,
          18765871,
          18768804,
          18799368
        ]
      }
    },
    {
      "type": "Feature",
      "geometry": {
        "type": "Point",
        "coordinates": [
          107.6116846,
          -6.9069916
        ]
      },
      "properties": {
        "id": 9735217309,
        "name": "Riau Junction",
        "shelter": "yes",
        "pole": "totem",
        "routes": [
          4642502,
          16644061
        ]
      }
    },
    {
      "type": "Feature",
      "geometry": {
        "type": "Point",
        "coordinates": [
          107.6198657,
          -6.9212009
        ]
      },
      "properties": {
        "id": 11735248704,
        "name": "Katapang Kaler 1",
        "shelter": "yes",
        "pole": "totem",
        "routes": [
          4433069,
          15520324,
          17771223,
          19664371
        ]
      }
    },
    {
      "type": "Feature",
      "geometry": {
        "type": "Point",
        "coordinates": [
          107.629359,
          -6.8999494
        ]
      },
      "properties": {
        "id": 11883306551,
        "name": "SMPN 63 Kota Bandung",
        "shelter": "yes",
        "pole": "totem",
        "routes": [
          4291189,
          4422550,
          4423238,
          17564612
        ]
      }
    },
    {
      "type": "Feature",
      "geometry": {
        "type": "Point",
        "coordinates": [
          107.7121641,
          -6.9358084
        ]
      },
      "properties": {
        "id": 11883722665,
        "name": "Panyileukan",
        "shelter": "yes",
        "pole": "totem",
        "routes": [
          4808667,
          16650577,
          17565369,
          18768805
        ]
      }
    },
    {
      "type": "Feature",
      "geometry": {
        "type": "Point",
        "coordinates": [
          107.7064259,
          -6.9361993
        ]
      },
      "properties": {
        "id": 11883722666,
        "name": "Cimincrang",
        "shelter": "yes",
        "pole": "totem",
        "routes": [
          4808667,
          16650577,
          17565369,
          18768805
        ]
      }
    },
    {
      "type": "Feature",
      "geometry": {
        "type": "Point",
        "coordinates": [
          107.6027633,
          -6.933836
        ]
      },
      "properties": {
        "id": 13012012586,
        "name": "Terminal Tegallega",
        "shelter": "yes",
        "pole": "totem",
        "routes": [
          4294474,
          16646484
        ]
      }
    },
    {
      "type": "Feature",
      "geometry": {
        "type": "Point",
        "coordinates": [
          107.6344029,
          -6.9158066
        ]
      },
      "properties": {
        "id": 13083683684,
        "name": "Jalan Cianjur",
        "shelter": "yes",
        "pole": "totem",
        "routes": []
      }
    }
  ]
}